{
  "metadata": {
    "total_count": 158,
    "conversion_time": "2025-10-30 11:53:28",
    "source": "数据集.xlsx",
    "description": "河北省全民健身场馆数据 - 通过NLP语义分析转换"
  },
  "facilities": [
    {
      "id": 1,
      "name": "滦州市体育场",
      "location": {
        "province": "河北省",
        "city": "唐山市",
        "district": "-唐山市",
        "full_address": "河北省-唐山市"
      },
      "sports_types": [],
      "description": "地址：河北省唐山市滦县滦街道安康北路9号",
      "facility_type": "体育场",
      "operator": "滦州市文化广电和旅游局",
      "build_year": 1991,
      "indicators": {
        "building_area": 3500.0,
        "site_area": 26800.0,
        "land_area": 36800.0,
        "core_area": 16000.0,
        "core_free_area": 32000.0,
        "outdoor_area": 10800.0,
        "outdoor_free_area": 26000.0,
        "seats": 448,
        "core_courts": 7,
        "outdoor_courts": 6,
        "has_outdoor_fitness": false,
        "daily_visitors": 4399
      },
      "subsidy_status": "2025年享受补助",
      "image_url": "https://js365.org.cn/oss/js365/upload/2021/06/07/3638edbe-7bed-4543-b156-15df9e9864a1.jpg",
      "facilities": "",
      "projects": "",
      "remarks": ""
    },
    {
      "id": 2,
      "name": "井陉县体育场",
      "location": {
        "province": "河北省",
        "city": "石家庄市",
        "district": "-石家庄市",
        "full_address": "河北省-石家庄市"
      },
      "sports_types": [],
      "description": "地址：河北省石家庄市井陉县微水乡乡镇河边西路28号",
      "facility_type": "体育场",
      "operator": "井陉县体育场",
      "build_year": 1986,
      "indicators": {
        "building_area": 534.0,
        "site_area": 21000.0,
        "land_area": 25303.0,
        "core_area": 19000.0,
        "core_free_area": 19000.0,
        "outdoor_area": 2000.0,
        "outdoor_free_area": 2000.0,
        "seats": 5,
        "core_courts": 1,
        "outdoor_courts": 1,
        "has_outdoor_fitness": false,
        "daily_visitors": 3521
      },
      "subsidy_status": "2025年享受补助",
      "image_url": "https://js365.org.cn/oss/js365/js365/upload/20220628/81c9e8c69cea48dab03cfb0592c131ca.jpg",
      "facilities": "",
      "projects": "",
      "remarks": ""
    },
    {
      "id": 3,
      "name": "柏乡县体育场",
      "location": {
        "province": "河北省",
        "city": "邢台市",
        "district": "-邢台市",
        "full_address": "河北省-邢台市"
      },
      "sports_types": [],
      "description": "地址：河北省邢台市柏乡县柏乡镇迎宾路105号",
      "facility_type": "体育场",
      "operator": "柏乡县教育文化广电体育和旅游局",
      "build_year": 2018,
      "indicators": {
        "building_area": 100.0,
        "site_area": 22000.0,
        "land_area": 22100.0,
        "core_area": 22000.0,
        "core_free_area": 22000.0,
        "outdoor_area": 0.0,
        "outdoor_free_area": 0.0,
        "seats": 500,
        "core_courts": 2,
        "outdoor_courts": 0,
        "has_outdoor_fitness": false,
        "daily_visitors": 3192
      },
      "subsidy_status": "2025年享受补助",
      "image_url": "https://js365.org.cn/oss/js365/upload/2021/07/22/59780811-6e29-45d6-9f70-6936beb07774.jpg",
      "facilities": "",
      "projects": "",
      "remarks": ""
    },
    {
      "id": 4,
      "name": "下花园体育场",
      "location": {
        "province": "河北省",
        "city": "张家口市",
        "district": "-张家口市",
        "full_address": "河北省-张家口市"
      },
      "sports_types": [],
      "description": "地址：河北省张家口市下花园区城镇街道街道中学西街街2号",
      "facility_type": "体育场",
      "operator": "下花园区教育和体育局",
      "build_year": 2023,
      "indicators": {
        "building_area": 3000.0,
        "site_area": 24000.0,
        "land_area": 27000.0,
        "core_area": 24000.0,
        "core_free_area": 24000.0,
        "outdoor_area": 5450.0,
        "outdoor_free_area": 20950.0,
        "seats": 6600,
        "core_courts": 1,
        "outdoor_courts": 1,
        "has_outdoor_fitness": false,
        "daily_visitors": 1493
      },
      "subsidy_status": "2025年享受补助",
      "image_url": "https://www.js365.org.cn/oss/js365/upload/20240712/bef77d7af36d47969257b87730391967.jpg",
      "facilities": "",
      "projects": "",
      "remarks": ""
    },
    {
      "id": 5,
      "name": "河北体育馆",
      "location": {
        "province": "河北省",
        "city": "石家庄市",
        "district": "-石家庄市",
        "full_address": "河北省-石家庄市足球,滑冰"
      },
      "sports_types": [],
      "description": "地址：河北省石家庄市长安区广安街道中山东路338号",
      "facility_type": "体育馆",
      "operator": "河北体育馆",
      "build_year": 1984,
      "indicators": {
        "building_area": 19963.0,
        "site_area": 36440.6,
        "land_area": 78946.2,
        "core_area": 1662.6,
        "core_free_area": 1662.6,
        "outdoor_area": 34778.0,
        "outdoor_free_area": 34778.0,
        "seats": 10000,
        "core_courts": 10,
        "outdoor_courts": 8,
        "has_outdoor_fitness": false,
        "daily_visitors": 1326
      },
      "subsidy_status": "2025年享受补助",
      "image_url": "https://js365.org.cn/oss/js365/upload/2021/10/12/f5de89a3-a29d-44ca-8e62-677e82c5b6fe.jpg",
      "facilities": "",
      "projects": "",
      "remarks": ""
    },
    {
      "id": 6,
      "name": "丰宁满族自治县全民健身中心",
      "location": {
        "province": "河北省",
        "city": "承德市",
        "district": "-承德市",
        "full_address": "河北省-承德市"
      },
      "sports_types": [],
      "description": "地址：河北省承德市丰宁满族自治县大阁镇乡街道裕丰路丰宁体育中心号",
      "facility_type": "健身中心",
      "operator": "丰宁满族自治县爱动健身服务有限公司",
      "build_year": 2015,
      "indicators": {
        "building_area": 2950.0,
        "site_area": 2360.0,
        "land_area": 1300.0,
        "core_area": 2000.0,
        "core_free_area": 2000.0,
        "outdoor_area": 360.0,
        "outdoor_free_area": 0.0,
        "seats": 0,
        "core_courts": 3,
        "outdoor_courts": 0,
        "has_outdoor_fitness": false,
        "daily_visitors": 1273
      },
      "subsidy_status": "2025年享受补助",
      "image_url": "https://js365.org.cn/oss/js365/upload/2021/04/30/cf694f30-7b72-49b4-b370-07a326cccaab.jpg",
      "facilities": "",
      "projects": "",
      "remarks": ""
    },
    {
      "id": 7,
      "name": "承德市体育局体育场",
      "location": {
        "province": "河北省",
        "city": "承德市",
        "district": "-承德市",
        "full_address": "河北省-承德市"
      },
      "sports_types": [],
      "description": "地址：河北省承德市双桥区银领社区新华路街道翠桥街19号",
      "facility_type": "体育场",
      "operator": "承德市体育局体育场",
      "build_year": 2005,
      "indicators": {
        "building_area": 2518.0,
        "site_area": 28350.0,
        "land_area": 44902.7,
        "core_area": 20073.0,
        "core_free_area": 20073.0,
        "outdoor_area": 8277.0,
        "outdoor_free_area": 8277.0,
        "seats": 3000,
        "core_courts": 2,
        "outdoor_courts": 6,
        "has_outdoor_fitness": false,
        "daily_visitors": 1103
      },
      "subsidy_status": "2025年享受补助",
      "image_url": "https://js365.org.cn/oss/js365/js365/upload/20220621/aace2102d4d546f4ab3358bb0b852e9c.jpg",
      "facilities": "",
      "projects": "",
      "remarks": ""
    },
    {
      "id": 8,
      "name": "唐山市体育中心体育场",
      "location": {
        "province": "河北省",
        "city": "唐山市",
        "district": "-唐山市",
        "full_address": "河北省-唐山市"
      },
      "sports_types": [],
      "description": "地址：河北省唐山市路北区文化路街道建设南路92号",
      "facility_type": "体育场",
      "operator": "唐山市体育中心",
      "build_year": 2016,
      "indicators": {
        "building_area": 1500.0,
        "site_area": 38500.0,
        "land_area": 40000.0,
        "core_area": 17500.0,
        "core_free_area": 17500.0,
        "outdoor_area": 21000.0,
        "outdoor_free_area": 21000.0,
        "seats": 5000,
        "core_courts": 1,
        "outdoor_courts": 4,
        "has_outdoor_fitness": false,
        "daily_visitors": 1043
      },
      "subsidy_status": "2025年享受补助",
      "image_url": "https://js365.org.cn/oss/js365/js365/upload/20220624/0d5145ca8a954bbea10ea20ae644307d.jpg",
      "facilities": "",
      "projects": "",
      "remarks": ""
    },
    {
      "id": 9,
      "name": "宣化区体育场",
      "location": {
        "province": "河北省",
        "city": "张家口市",
        "district": "-张家口市",
        "full_address": "河北省-张家口市"
      },
      "sports_types": [],
      "description": "地址：河北省张家口市宣化区南关街道桥北街15号",
      "facility_type": "体育场",
      "operator": "宣化区体育场",
      "build_year": 1992,
      "indicators": {
        "building_area": 28110.0,
        "site_area": 33000.0,
        "land_area": 40000.0,
        "core_area": 28110.0,
        "core_free_area": 28110.0,
        "outdoor_area": 4890.0,
        "outdoor_free_area": 200.0,
        "seats": 21500,
        "core_courts": 6,
        "outdoor_courts": 1,
        "has_outdoor_fitness": false,
        "daily_visitors": 1028
      },
      "subsidy_status": "2025年享受补助",
      "image_url": "https://js365.org.cn/oss/js365/upload/2021/07/22/88f22404-24b6-4b7e-a87f-e453e5849853.jpg",
      "facilities": "",
      "projects": "",
      "remarks": ""
    },
    {
      "id": 10,
      "name": "柏乡县体育馆",
      "location": {
        "province": "河北省",
        "city": "邢台市",
        "district": "-邢台市",
        "full_address": "河北省-邢台市"
      },
      "sports_types": [],
      "description": "地址：河北省邢台市柏乡县柏乡镇迎宾路105号",
      "facility_type": "体育馆",
      "operator": "柏乡县教育文化广电体育和旅游局",
      "build_year": 2015,
      "indicators": {
        "building_area": 2200.0,
        "site_area": 2200.0,
        "land_area": 2500.0,
        "core_area": 2200.0,
        "core_free_area": 2200.0,
        "outdoor_area": 0.0,
        "outdoor_free_area": 0.0,
        "seats": 408,
        "core_courts": 8,
        "outdoor_courts": 0,
        "has_outdoor_fitness": false,
        "daily_visitors": 1020
      },
      "subsidy_status": "2025年享受补助",
      "image_url": "https://js365.org.cn/oss/js365/upload/2021/07/22/7e176604-2dd8-481d-8636-2d3032f67f42.jpg",
      "facilities": "",
      "projects": "",
      "remarks": ""
    },
    {
      "id": 11,
      "name": "承德市奥林匹克体育中心体育场",
      "location": {
        "province": "河北省",
        "city": "承德市",
        "district": "-承德市",
        "full_address": "河北省-承德市"
      },
      "sports_types": [],
      "description": "地址：河北省承德市双桥区冯营子街道学院街1号",
      "facility_type": "体育场",
      "operator": "承德市奥林匹克体育中心",
      "build_year": 2011,
      "indicators": {
        "building_area": 34700.0,
        "site_area": 52200.0,
        "land_area": 76000.0,
        "core_area": 15200.0,
        "core_free_area": 15000.0,
        "outdoor_area": 37000.0,
        "outdoor_free_area": 37000.0,
        "seats": 20000,
        "core_courts": 2,
        "outdoor_courts": 6,
        "has_outdoor_fitness": false,
        "daily_visitors": 891
      },
      "subsidy_status": "2025年享受补助",
      "image_url": "https://js365.org.cn/oss/js365/upload/2021/07/23/ff06c55e-0d05-4671-8c8d-3e9755caf22e.png",
      "facilities": "",
      "projects": "",
      "remarks": ""
    },
    {
      "id": 12,
      "name": "承德市全民健身活动中心",
      "location": {
        "province": "河北省",
        "city": "承德市",
        "district": "-承德市",
        "full_address": "河北省-承德市"
      },
      "sports_types": [],
      "description": "地址：河北省承德市双桥区牛圈子沟街道翠桥路19号",
      "facility_type": "健身中心",
      "operator": "承德体育运动学校",
      "build_year": 2000,
      "indicators": {
        "building_area": 5996.38,
        "site_area": 5996.38,
        "land_area": 5400.0,
        "core_area": 5996.38,
        "core_free_area": 5996.38,
        "outdoor_area": 0.0,
        "outdoor_free_area": 0.0,
        "seats": 0,
        "core_courts": 3,
        "outdoor_courts": 0,
        "has_outdoor_fitness": false,
        "daily_visitors": 834
      },
      "subsidy_status": "2025年享受补助",
      "image_url": "https://js365.org.cn/oss/js365/upload/2021/06/03/6ef91f57-5c89-4318-8d2a-7b3c6467d9f3.jpg",
      "facilities": "",
      "projects": "",
      "remarks": ""
    },
    {
      "id": 13,
      "name": "唐山新体育中心游泳馆",
      "location": {
        "province": "河北省",
        "city": "唐山市",
        "district": "-唐山市",
        "full_address": "河北省-唐山市"
      },
      "sports_types": [],
      "description": "地址：河北省唐山市路南区梁家屯街道新岳道与卫国路交叉口路游泳馆号",
      "facility_type": "公共游泳(跳水)",
      "operator": "唐山文旅体育场馆运营管理有限公司",
      "build_year": 2019,
      "indicators": {
        "building_area": 19500.0,
        "site_area": 21384.85,
        "land_area": 26168.0,
        "core_area": 5672.85,
        "core_free_area": 5672.85,
        "outdoor_area": 15712.0,
        "outdoor_free_area": 15712.0,
        "seats": 2183,
        "core_courts": 3,
        "outdoor_courts": 1,
        "has_outdoor_fitness": false,
        "daily_visitors": 807
      },
      "subsidy_status": "2025年享受补助",
      "image_url": "https://www.js365.org.cn/oss/js365/upload/20230626/26a1222836174cc7a68f83acf4497d03.jpg",
      "facilities": "",
      "projects": "",
      "remarks": ""
    },
    {
      "id": 14,
      "name": "石家庄市新华区文体中心体育综合馆",
      "location": {
        "province": "河北省",
        "city": "石家庄市",
        "district": "-石家庄市",
        "full_address": "河北省-石家庄市"
      },
      "sports_types": [],
      "description": "地址：河北省石家庄市新华区北苑街道钟旺路15号",
      "facility_type": "体育馆",
      "operator": "新华区文体和旅游局",
      "build_year": 2012,
      "indicators": {
        "building_area": 1900.0,
        "site_area": 1900.0,
        "land_area": 1900.0,
        "core_area": 1300.0,
        "core_free_area": 1300.0,
        "outdoor_area": 600.0,
        "outdoor_free_area": 600.0,
        "seats": 560,
        "core_courts": 2,
        "outdoor_courts": 0,
        "has_outdoor_fitness": false,
        "daily_visitors": 737
      },
      "subsidy_status": "2025年享受补助",
      "image_url": "https://js365.org.cn/oss/js365/js365/upload/20220620/13117c9a27f940fb9095307d386a8be6.jpg",
      "facilities": "",
      "projects": "",
      "remarks": ""
    },
    {
      "id": 15,
      "name": "孟村县全民健身馆",
      "location": {
        "province": "河北省",
        "city": "沧州市",
        "district": "-沧州市",
        "full_address": "河北省-沧州市"
      },
      "sports_types": [],
      "description": "地址：河北省沧州市孟村回族自治县孟村乡镇朝阳大街8号",
      "facility_type": "健身中心",
      "operator": "孟村回族自治县文体广电和旅游局",
      "build_year": 2013,
      "indicators": {
        "building_area": 3600.0,
        "site_area": 3000.0,
        "land_area": 19980.0,
        "core_area": 1000.0,
        "core_free_area": 1000.0,
        "outdoor_area": 5000.0,
        "outdoor_free_area": 5000.0,
        "seats": 0,
        "core_courts": 5,
        "outdoor_courts": 5,
        "has_outdoor_fitness": false,
        "daily_visitors": 702
      },
      "subsidy_status": "2025年享受补助",
      "image_url": "https://js365.org.cn/oss/js365/upload/2021/04/30/6ceb08dc-e655-4f69-9b0d-9302a0db9fec.jpg",
      "facilities": "",
      "projects": "",
      "remarks": ""
    },
    {
      "id": 16,
      "name": "河北奥体中心主体育场",
      "location": {
        "province": "河北省",
        "city": "石家庄市",
        "district": "-石家庄市",
        "full_address": "河北省-石家庄市"
      },
      "sports_types": [],
      "description": "地址：河北省石家庄市正定县诸福屯乡镇恒阳路路62号",
      "facility_type": "体育场",
      "operator": "河北奥林匹克体育中心",
      "build_year": 2017,
      "indicators": {
        "building_area": 119000.0,
        "site_area": 79880.0,
        "land_area": 230000.0,
        "core_area": 17280.0,
        "core_free_area": 7300.0,
        "outdoor_area": 62600.0,
        "outdoor_free_area": 24500.0,
        "seats": 56000,
        "core_courts": 1,
        "outdoor_courts": 15,
        "has_outdoor_fitness": false,
        "daily_visitors": 670
      },
      "subsidy_status": "2025年享受补助",
      "image_url": "https://js365.org.cn/oss/js365/js365/upload/20220729/389e37221f8f4c95bca92583a0d2935e.png",
      "facilities": "",
      "projects": "",
      "remarks": ""
    },
    {
      "id": 17,
      "name": "固安县市民活动中心（游泳馆、体育馆、全民健身中心）",
      "location": {
        "province": "河北省",
        "city": "廊坊市",
        "district": "-廊坊市",
        "full_address": "河北省-廊坊市"
      },
      "sports_types": [],
      "description": "地址：河北省廊坊市固安县亚新科路南侧街道城南106国道东侧路京九铁路西侧号",
      "facility_type": "健身中心",
      "operator": "绿茵天地场馆经营管理（固安）有限公司",
      "build_year": 2014,
      "indicators": {
        "building_area": 17835.0,
        "site_area": 11151.0,
        "land_area": 19511.0,
        "core_area": 9475.0,
        "core_free_area": 7976.0,
        "outdoor_area": 1676.0,
        "outdoor_free_area": 1676.0,
        "seats": 0,
        "core_courts": 12,
        "outdoor_courts": 6,
        "has_outdoor_fitness": false,
        "daily_visitors": 664
      },
      "subsidy_status": "2025年享受补助",
      "image_url": "https://js365.org.cn/oss/js365/upload/2021/07/20/99b585ce-bdee-43c3-b4f8-15e69432f5c4.jpg",
      "facilities": "",
      "projects": "",
      "remarks": ""
    },
    {
      "id": 18,
      "name": "石家庄市鹿泉区体育场",
      "location": {
        "province": "河北省",
        "city": "石家庄市",
        "district": "-石家庄市",
        "full_address": "河北省-石家庄市"
      },
      "sports_types": [],
      "description": "地址：河北省石家庄市鹿泉区获鹿镇乡镇向阳大街街213号",
      "facility_type": "体育场",
      "operator": "石家庄市鹿泉区体育场",
      "build_year": 1995,
      "indicators": {
        "building_area": 5015.0,
        "site_area": 15600.0,
        "land_area": 29683.22,
        "core_area": 15244.0,
        "core_free_area": 15244.0,
        "outdoor_area": 5976.2,
        "outdoor_free_area": 5676.2,
        "seats": 1400,
        "core_courts": 6,
        "outdoor_courts": 3,
        "has_outdoor_fitness": false,
        "daily_visitors": 608
      },
      "subsidy_status": "2025年享受补助",
      "image_url": "https://js365.org.cn/oss/js365/upload/2021/07/27/9068d57c-f87f-4a21-9917-9af6ea0de6cd.jpg",
      "facilities": "",
      "projects": "",
      "remarks": ""
    },
    {
      "id": 19,
      "name": "唐山九江体育中心体育场",
      "location": {
        "province": "河北省",
        "city": "唐山市",
        "district": "-唐山市",
        "full_address": "河北省-唐山市"
      },
      "sports_types": [],
      "description": "地址：河北省唐山市迁安市永顺街道惠兴大街街999号",
      "facility_type": "体育场",
      "operator": "唐山九江体育中心",
      "build_year": 2012,
      "indicators": {
        "building_area": 25889.0,
        "site_area": 77593.5,
        "land_area": 84000.0,
        "core_area": 23357.54,
        "core_free_area": 23357.54,
        "outdoor_area": 55235.96,
        "outdoor_free_area": 55235.96,
        "seats": 22775,
        "core_courts": 11,
        "outdoor_courts": 1,
        "has_outdoor_fitness": false,
        "daily_visitors": 461
      },
      "subsidy_status": "2025年享受补助",
      "image_url": "https://js365.org.cn/oss/js365/upload/2021/07/20/fef3ac9a-459d-4e10-9ad8-c87805ba42b5.jpg",
      "facilities": "",
      "projects": "",
      "remarks": ""
    },
    {
      "id": 20,
      "name": "石家庄全民健身中心",
      "location": {
        "province": "河北省",
        "city": "石家庄市",
        "district": "-石家庄市",
        "full_address": "河北省-石家庄市"
      },
      "sports_types": [],
      "description": "地址：河北省石家庄市长安区育才街道体育北大街街115号",
      "facility_type": "健身中心",
      "operator": "石家庄市游泳业余体育学校",
      "build_year": 2018,
      "indicators": {
        "building_area": 30816.0,
        "site_area": 9725.0,
        "land_area": 15461.0,
        "core_area": 8325.0,
        "core_free_area": 5775.0,
        "outdoor_area": 1400.0,
        "outdoor_free_area": 1400.0,
        "seats": 0,
        "core_courts": 6,
        "outdoor_courts": 1,
        "has_outdoor_fitness": false,
        "daily_visitors": 453
      },
      "subsidy_status": "2025年享受补助",
      "image_url": "https://js365.org.cn/oss/js365/upload/2021/10/14/f676f6f9-78a2-468b-b50b-6a17d66560a6.jpg",
      "facilities": "",
      "projects": "",
      "remarks": ""
    },
    {
      "id": 21,
      "name": "曲阳县惠民运动中心游泳馆",
      "location": {
        "province": "河北省",
        "city": "保定市",
        "district": "-保定市",
        "full_address": "河北省-保定市"
      },
      "sports_types": [],
      "description": "地址：河北省保定市曲阳县恒州镇街道恒阳街54号",
      "facility_type": "公共游泳(跳水)",
      "operator": "曲阳恒泰体育发展有限公司",
      "build_year": 2022,
      "indicators": {
        "building_area": 3319.16,
        "site_area": 2647.07,
        "land_area": 3133.33,
        "core_area": 2247.07,
        "core_free_area": 2247.07,
        "outdoor_area": 0.0,
        "outdoor_free_area": 0.0,
        "seats": 300,
        "core_courts": 0,
        "outdoor_courts": 0,
        "has_outdoor_fitness": false,
        "daily_visitors": 663
      },
      "subsidy_status": "2025年享受补助",
      "image_url": "https://www.js365.org.cn/oss/js365/upload/20240720/c53616e1148a46f28b333ed81f211e1d.jpg",
      "facilities": "",
      "projects": "",
      "remarks": ""
    },
    {
      "id": 22,
      "name": "曲阳县惠民运动中心体育馆",
      "location": {
        "province": "河北省",
        "city": "保定市",
        "district": "-保定市",
        "full_address": "河北省-保定市"
      },
      "sports_types": [],
      "description": "地址：河北省保定市曲阳县恒州镇街道恒阳街54号",
      "facility_type": "健身中心",
      "operator": "曲阳恒泰体育发展有限公司",
      "build_year": 2022,
      "indicators": {
        "building_area": 6638.32,
        "site_area": 3240.76,
        "land_area": 3000.0,
        "core_area": 2540.76,
        "core_free_area": 2540.76,
        "outdoor_area": 0.0,
        "outdoor_free_area": 0.0,
        "seats": 0,
        "core_courts": 0,
        "outdoor_courts": 0,
        "has_outdoor_fitness": false,
        "daily_visitors": 666
      },
      "subsidy_status": "2025年享受补助",
      "image_url": "https://www.js365.org.cn/oss/js365/upload/20240720/d27ded2cfee44ebc864ed32e1e38f394.jpg",
      "facilities": "",
      "projects": "",
      "remarks": ""
    },
    {
      "id": 23,
      "name": "唐山市体育中心体育馆",
      "location": {
        "province": "河北省",
        "city": "唐山市",
        "district": "-唐山市",
        "full_address": "河北省-唐山市"
      },
      "sports_types": [],
      "description": "地址：河北省唐山市路北区文化路街道建设南路92号",
      "facility_type": "体育馆",
      "operator": "唐山市体育中心",
      "build_year": 1984,
      "indicators": {
        "building_area": 6834.0,
        "site_area": 4200.0,
        "land_area": 18590.0,
        "core_area": 1200.0,
        "core_free_area": 1200.0,
        "outdoor_area": 3000.0,
        "outdoor_free_area": 3000.0,
        "seats": 3750,
        "core_courts": 1,
        "outdoor_courts": 6,
        "has_outdoor_fitness": false,
        "daily_visitors": 182
      },
      "subsidy_status": "2025年享受补助",
      "image_url": "https://js365.org.cn/oss/js365/upload/2021/07/27/f658130b-cded-4f38-98c7-2692c2151637.jpg",
      "facilities": "",
      "projects": "",
      "remarks": ""
    },
    {
      "id": 24,
      "name": "保定市第一重点业余体校乒乓球馆",
      "location": {
        "province": "河北省",
        "city": "保定市",
        "district": "-保定市",
        "full_address": "河北省-保定市"
      },
      "sports_types": [],
      "description": "地址：河北省保定市莲池区公园街街道公园街街46号",
      "facility_type": "体育馆",
      "operator": "保定市第一重点业余体校",
      "build_year": 1992,
      "indicators": {
        "building_area": 1900.0,
        "site_area": 1800.0,
        "land_area": 700.0,
        "core_area": 1500.0,
        "core_free_area": 1500.0,
        "outdoor_area": 0.0,
        "outdoor_free_area": 0.0,
        "seats": 100,
        "core_courts": 0,
        "outdoor_courts": 0,
        "has_outdoor_fitness": false,
        "daily_visitors": 623
      },
      "subsidy_status": "2025年享受补助",
      "image_url": "https://www.js365.org.cn/oss/js365/upload/20240731/9b3dda937c0b44cfabbd704458cfa21a.jpg",
      "facilities": "",
      "projects": "",
      "remarks": ""
    },
    {
      "id": 25,
      "name": "石家庄全民健身中心",
      "location": {
        "province": "河北省",
        "city": "石家庄市",
        "district": "-石家庄市",
        "full_address": "河北省-石家庄市"
      },
      "sports_types": [],
      "description": "地址：河北省石家庄市长安区育才街道体育北大街街115号",
      "facility_type": "健身中心",
      "operator": "石家庄市游泳业余体育学校",
      "build_year": 2018,
      "indicators": {
        "building_area": 30816.0,
        "site_area": 9725.0,
        "land_area": 15461.0,
        "core_area": 8325.0,
        "core_free_area": 5775.0,
        "outdoor_area": 1400.0,
        "outdoor_free_area": 1400.0,
        "seats": 0,
        "core_courts": 6,
        "outdoor_courts": 1,
        "has_outdoor_fitness": false,
        "daily_visitors": 571
      },
      "subsidy_status": "2025年享受补助",
      "image_url": "https://js365.org.cn/oss/js365/upload/2021/10/14/f676f6f9-78a2-468b-b50b-6a17d66560a6.jpg",
      "facilities": "",
      "projects": "",
      "remarks": ""
    },
    {
      "id": 26,
      "name": "唐山新体育中心体育馆",
      "location": {
        "province": "河北省",
        "city": "唐山市",
        "district": "-唐山市",
        "full_address": "河北省-唐山市"
      },
      "sports_types": [],
      "description": "地址：河北省唐山市路南区梁家屯街道新岳道与卫国南路交汇处西南侧街新岳道与卫国南路交汇处西南侧号",
      "facility_type": "体育馆",
      "operator": "唐山文旅体育场馆运营管理有限公司",
      "build_year": 2019,
      "indicators": {
        "building_area": 26400.0,
        "site_area": 27821.41,
        "land_area": 36682.0,
        "core_area": 5153.41,
        "core_free_area": 5153.41,
        "outdoor_area": 22668.0,
        "outdoor_free_area": 22668.0,
        "seats": 6051,
        "core_courts": 2,
        "outdoor_courts": 1,
        "has_outdoor_fitness": false,
        "daily_visitors": 534
      },
      "subsidy_status": "2025年享受补助",
      "image_url": "https://www.js365.org.cn/oss/js365/upload/20230614/732719965e864f5ab9daa3bcd1f52dad.jpg",
      "facilities": "",
      "projects": "",
      "remarks": ""
    },
    {
      "id": 27,
      "name": "文安县体育场",
      "location": {
        "province": "河北省",
        "city": "廊坊市",
        "district": "-廊坊市",
        "full_address": "河北省-廊坊市"
      },
      "sports_types": [],
      "description": "地址：河北省廊坊市文安县文安县街道政通道街194号",
      "facility_type": "体育场",
      "operator": "文安县教育和体育局",
      "build_year": 2016,
      "indicators": {
        "building_area": 292.0,
        "site_area": 20258.0,
        "land_area": 28000.0,
        "core_area": 15319.0,
        "core_free_area": 15319.0,
        "outdoor_area": 4939.0,
        "outdoor_free_area": 4939.0,
        "seats": 500,
        "core_courts": 1,
        "outdoor_courts": 2,
        "has_outdoor_fitness": false,
        "daily_visitors": 475
      },
      "subsidy_status": "2025年享受补助",
      "image_url": "https://js365.org.cn/oss/js365/upload/2021/05/07/50c32bad-91c0-495a-b136-df189336719a.jpg",
      "facilities": "",
      "projects": "",
      "remarks": ""
    },
    {
      "id": 28,
      "name": "栾城区体育馆",
      "location": {
        "province": "河北省",
        "city": "石家庄市",
        "district": "-石家庄市",
        "full_address": "河北省-石家庄市"
      },
      "sports_types": [],
      "description": "地址：河北省石家庄市栾城区栾城镇街道惠源路39号",
      "facility_type": "体育馆",
      "operator": "石家庄市栾城区体育运动管理中心",
      "build_year": 1999,
      "indicators": {
        "building_area": 5000.0,
        "site_area": 5500.0,
        "land_area": 8000.0,
        "core_area": 2000.0,
        "core_free_area": 2000.0,
        "outdoor_area": 3500.0,
        "outdoor_free_area": 3500.0,
        "seats": 200,
        "core_courts": 6,
        "outdoor_courts": 1,
        "has_outdoor_fitness": false,
        "daily_visitors": 416
      },
      "subsidy_status": "2025年享受补助",
      "image_url": "https://js365.org.cn/oss/js365/js365/upload/20220714/d019cb5abda14242bfa92345e200bfd8.png",
      "facilities": "",
      "projects": "",
      "remarks": ""
    },
    {
      "id": 29,
      "name": "承德市奥林游泳馆",
      "location": {
        "province": "河北省",
        "city": "承德市",
        "district": "-承德市",
        "full_address": "河北省-承德市"
      },
      "sports_types": [],
      "description": "地址：河北省承德市双桥区中华路街道武烈路3号",
      "facility_type": "公共游泳(跳水)",
      "operator": "承德市奥林游泳馆",
      "build_year": 1998,
      "indicators": {
        "building_area": 2185.92,
        "site_area": 3164.05,
        "land_area": 8224.3,
        "core_area": 2155.05,
        "core_free_area": 2155.05,
        "outdoor_area": 1009.0,
        "outdoor_free_area": 500.0,
        "seats": 200,
        "core_courts": 2,
        "outdoor_courts": 1,
        "has_outdoor_fitness": false,
        "daily_visitors": 456
      },
      "subsidy_status": "2025年享受补助",
      "image_url": "https://js365.org.cn/oss/js365/js365/upload/20220715/ef472ea1f48541fd915fb2d44a86f882.jpg",
      "facilities": "",
      "projects": "",
      "remarks": ""
    },
    {
      "id": 30,
      "name": "故城县健身中心比赛馆",
      "location": {
        "province": "河北省",
        "city": "衡水市",
        "district": "-衡水市",
        "full_address": "河北省-衡水市"
      },
      "sports_types": [],
      "description": "地址：河北省衡水市故城县尚书房街道光明街东街11号",
      "facility_type": "体育馆",
      "operator": "故城昊洁企业管理有限公司",
      "build_year": 2023,
      "indicators": {
        "building_area": 20955.61,
        "site_area": 12160.06,
        "land_area": 21499.0,
        "core_area": 5560.0,
        "core_free_area": 5560.0,
        "outdoor_area": 0.0,
        "outdoor_free_area": 0.0,
        "seats": 3300,
        "core_courts": 0,
        "outdoor_courts": 0,
        "has_outdoor_fitness": false,
        "daily_visitors": 376
      },
      "subsidy_status": "2025年享受补助",
      "image_url": "https://www.js365.org.cn/oss/js365/upload/20240715/882622bccf324977acf7f9104caac600.jpg",
      "facilities": "",
      "projects": "",
      "remarks": ""
    },
    {
      "id": 31,
      "name": "石家庄市网球推广训练中心",
      "location": {
        "province": "河北省",
        "city": "石家庄市",
        "district": "-石家庄市",
        "full_address": "河北省-石家庄市"
      },
      "sports_types": [],
      "description": "地址：河北省石家庄市裕华区方村街道体育公园街街128号",
      "facility_type": "健身中心",
      "operator": "石家庄勇石体育发展有限责任公司",
      "build_year": 2023,
      "indicators": {
        "building_area": 16573.02,
        "site_area": 9362.0,
        "land_area": 19791.0,
        "core_area": 9362.0,
        "core_free_area": 5982.0,
        "outdoor_area": 0.0,
        "outdoor_free_area": 0.0,
        "seats": 0,
        "core_courts": 4,
        "outdoor_courts": 0,
        "has_outdoor_fitness": false,
        "daily_visitors": 349
      },
      "subsidy_status": "2025年享受补助",
      "image_url": "https://www.js365.org.cn/oss/js365/upload/20230626/295ec3522183485c828b2efd6692ec07.jpg",
      "facilities": "",
      "projects": "",
      "remarks": ""
    },
    {
      "id": 32,
      "name": "栾城区全民健身中心",
      "location": {
        "province": "河北省",
        "city": "石家庄市",
        "district": "-石家庄市",
        "full_address": "河北省-石家庄市滑冰"
      },
      "sports_types": [],
      "description": "地址：河北省石家庄市栾城区栾城镇街道太行南大街街10号",
      "facility_type": "健身中心",
      "operator": "石家庄市栾城区体育运动管理中心",
      "build_year": 2018,
      "indicators": {
        "building_area": 2000.0,
        "site_area": 5600.0,
        "land_area": 6000.0,
        "core_area": 1600.0,
        "core_free_area": 1600.0,
        "outdoor_area": 4000.0,
        "outdoor_free_area": 4000.0,
        "seats": 0,
        "core_courts": 4,
        "outdoor_courts": 7,
        "has_outdoor_fitness": false,
        "daily_visitors": 327
      },
      "subsidy_status": "2025年享受补助",
      "image_url": "https://js365.org.cn/oss/js365/js365/upload/20220715/28f70526836d4326a949b0c8f38473d3.jpg",
      "facilities": "",
      "projects": "",
      "remarks": ""
    },
    {
      "id": 33,
      "name": "邯郸市体育馆",
      "location": {
        "province": "河北省",
        "city": "邯郸市",
        "district": "-邯郸市",
        "full_address": "河北省-邯郸市"
      },
      "sports_types": [],
      "description": "地址：河北省邯郸市邯山区陵园路街道陵园街86号",
      "facility_type": "体育馆",
      "operator": "邯郸市体育中心",
      "build_year": 1975,
      "indicators": {
        "building_area": 9689.0,
        "site_area": 9250.0,
        "land_area": 14200.0,
        "core_area": 1250.0,
        "core_free_area": 1250.0,
        "outdoor_area": 8000.0,
        "outdoor_free_area": 8000.0,
        "seats": 3000,
        "core_courts": 5,
        "outdoor_courts": 6,
        "has_outdoor_fitness": false,
        "daily_visitors": 373
      },
      "subsidy_status": "2025年享受补助",
      "image_url": "https://js365.org.cn/oss/js365/upload/2021/07/21/944e24a5-24f8-4427-bf9e-a2c6342591b9.jpg",
      "facilities": "",
      "projects": "",
      "remarks": ""
    },
    {
      "id": 34,
      "name": "徐水区体育场",
      "location": {
        "province": "河北省",
        "city": "保定市",
        "district": "-保定市",
        "full_address": "河北省-保定市"
      },
      "sports_types": [],
      "description": "地址：河北省保定市徐水区安肃镇乡乡镇振兴中路66号",
      "facility_type": "体育场",
      "operator": "徐水区教育和体育局",
      "build_year": 1990,
      "indicators": {
        "building_area": 2000.0,
        "site_area": 25000.0,
        "land_area": 30000.0,
        "core_area": 20000.0,
        "core_free_area": 20000.0,
        "outdoor_area": 5000.0,
        "outdoor_free_area": 5000.0,
        "seats": 2000,
        "core_courts": 4,
        "outdoor_courts": 4,
        "has_outdoor_fitness": false,
        "daily_visitors": 306
      },
      "subsidy_status": "2025年享受补助",
      "image_url": "https://js365.org.cn/oss/js365/upload/2021/05/17/4c895588-ff48-44ab-b859-c414960006b1.jpg",
      "facilities": "",
      "projects": "",
      "remarks": ""
    },
    {
      "id": 35,
      "name": "北戴河区体育馆",
      "location": {
        "province": "河北省",
        "city": "秦皇岛市",
        "district": "-秦皇岛市",
        "full_address": "河北省-秦皇岛市"
      },
      "sports_types": [],
      "description": "地址：河北省秦皇岛市北戴河区戴河镇街道戴河大街街6号",
      "facility_type": "体育馆",
      "operator": "北戴河区教体局",
      "build_year": 2023,
      "indicators": {
        "building_area": 18742.0,
        "site_area": 4000.0,
        "land_area": 49404.58,
        "core_area": 4000.0,
        "core_free_area": 4000.0,
        "outdoor_area": 0.0,
        "outdoor_free_area": 0.0,
        "seats": 1616,
        "core_courts": 0,
        "outdoor_courts": 0,
        "has_outdoor_fitness": false,
        "daily_visitors": 270
      },
      "subsidy_status": "2025年享受补助",
      "image_url": "https://www.js365.org.cn/oss/js365/upload/20240726/c9c0f9f125a0478c8600fef0f996d8e4.jpg",
      "facilities": "",
      "projects": "",
      "remarks": ""
    },
    {
      "id": 36,
      "name": "长安区文化体育活动中心",
      "location": {
        "province": "河北省",
        "city": "石家庄市",
        "district": "-石家庄市",
        "full_address": "河北省-石家庄市"
      },
      "sports_types": [],
      "description": "地址：河北省石家庄市长安区高营乡镇高营大街街14号",
      "facility_type": "健身中心",
      "operator": "河北健达体育文化发展有限公司",
      "build_year": 2023,
      "indicators": {
        "building_area": 10564.0,
        "site_area": 1900.0,
        "land_area": 6684.0,
        "core_area": 1900.0,
        "core_free_area": 1100.0,
        "outdoor_area": 0.0,
        "outdoor_free_area": 0.0,
        "seats": 0,
        "core_courts": 3,
        "outdoor_courts": 0,
        "has_outdoor_fitness": false,
        "daily_visitors": 295
      },
      "subsidy_status": "2025年享受补助",
      "image_url": "https://www.js365.org.cn/oss/js365/upload/20230626/94fd833abf0743a297eae351ed6dd4e6.jpg",
      "facilities": "",
      "projects": "",
      "remarks": ""
    },
    {
      "id": 37,
      "name": "衡水市奥林匹克体育中心体育场",
      "location": {
        "province": "河北省",
        "city": "衡水市",
        "district": "-衡水市",
        "full_address": "河北省-衡水市"
      },
      "sports_types": [],
      "description": "地址：河北省衡水市桃城区河东街道南环东路66号",
      "facility_type": "体育场",
      "operator": "衡水奥体项目管理有限公司",
      "build_year": 2019,
      "indicators": {
        "building_area": 38355.0,
        "site_area": 34000.0,
        "land_area": 225917.0,
        "core_area": 16000.0,
        "core_free_area": 16000.0,
        "outdoor_area": 18000.0,
        "outdoor_free_area": 18000.0,
        "seats": 30000,
        "core_courts": 4,
        "outdoor_courts": 15,
        "has_outdoor_fitness": false,
        "daily_visitors": 301
      },
      "subsidy_status": "2025年享受补助",
      "image_url": "https://js365.org.cn/oss/js365/upload/2021/07/21/72fa81cb-88f4-4336-9aa3-c4d6e64fdd38.jpg",
      "facilities": "",
      "projects": "",
      "remarks": ""
    },
    {
      "id": 38,
      "name": "阜城县全民健身中心体育馆",
      "location": {
        "province": "河北省",
        "city": "衡水市",
        "district": "-衡水市",
        "full_address": "河北省-衡水市"
      },
      "sports_types": [],
      "description": "地址：河北省衡水市阜城县阜城乡镇阜康路106号",
      "facility_type": "体育馆",
      "operator": "阜城县教育局（体育局）",
      "build_year": 2021,
      "indicators": {
        "building_area": 16666.0,
        "site_area": 1500.0,
        "land_area": 10000.0,
        "core_area": 1500.0,
        "core_free_area": 1500.0,
        "outdoor_area": 0.0,
        "outdoor_free_area": 800.0,
        "seats": 4000,
        "core_courts": 1,
        "outdoor_courts": 1,
        "has_outdoor_fitness": false,
        "daily_visitors": 245
      },
      "subsidy_status": "2025年享受补助",
      "image_url": "https://js365.org.cn/oss/js365/upload/2021/05/09/8fb92999-2328-4d69-a648-dcab215bc003.jpg",
      "facilities": "",
      "projects": "",
      "remarks": ""
    },
    {
      "id": 39,
      "name": "河间市体育场",
      "location": {
        "province": "河北省",
        "city": "沧州市",
        "district": "-沧州市",
        "full_address": "河北省-沧州市"
      },
      "sports_types": [],
      "description": "地址：河北省沧州市河间市瀛州路街道团结大街50号",
      "facility_type": "体育场",
      "operator": "河间市教育体育局",
      "build_year": 2006,
      "indicators": {
        "building_area": 46808.0,
        "site_area": 45300.0,
        "land_area": 55300.0,
        "core_area": 16080.0,
        "core_free_area": 16080.0,
        "outdoor_area": 29220.0,
        "outdoor_free_area": 3600.0,
        "seats": 10000,
        "core_courts": 1,
        "outdoor_courts": 3,
        "has_outdoor_fitness": false,
        "daily_visitors": 349
      },
      "subsidy_status": "2025年享受补助",
      "image_url": "https://js365.org.cn/oss/js365/upload/2021/06/10/f0c05807-a4c4-4046-a159-8d82f82a1af4.jpg",
      "facilities": "",
      "projects": "",
      "remarks": ""
    },
    {
      "id": 40,
      "name": "滦州市综合训练馆",
      "location": {
        "province": "河北省",
        "city": "唐山市",
        "district": "-唐山市",
        "full_address": "河北省-唐山市"
      },
      "sports_types": [],
      "description": "地址：河北省唐山市滦州市滦河街道安康北路9号",
      "facility_type": "体育馆",
      "operator": "滦州市文化广电和旅游局",
      "build_year": 1991,
      "indicators": {
        "building_area": 900.0,
        "site_area": 900.0,
        "land_area": 1100.0,
        "core_area": 800.0,
        "core_free_area": 800.0,
        "outdoor_area": 100.0,
        "outdoor_free_area": 100.0,
        "seats": 50,
        "core_courts": 1,
        "outdoor_courts": 1,
        "has_outdoor_fitness": false,
        "daily_visitors": 0
      },
      "subsidy_status": "2025年享受补助",
      "image_url": "",
      "facilities": "",
      "projects": "",
      "remarks": ""
    },
    {
      "id": 41,
      "name": "北戴河区体育场",
      "location": {
        "province": "河北省",
        "city": "秦皇岛市",
        "district": "-秦皇岛市",
        "full_address": "河北省-秦皇岛市"
      },
      "sports_types": [],
      "description": "地址：河北省秦皇岛市北戴河区东山街道东山社区街1门牌",
      "facility_type": "体育场",
      "operator": "北戴河区教体局",
      "build_year": 2005,
      "indicators": {
        "building_area": 22400.0,
        "site_area": 37850.0,
        "land_area": 173160.0,
        "core_area": 37850.0,
        "core_free_area": 37850.0,
        "outdoor_area": 0.0,
        "outdoor_free_area": 0.0,
        "seats": 1000,
        "core_courts": 0,
        "outdoor_courts": 0,
        "has_outdoor_fitness": false,
        "daily_visitors": 229
      },
      "subsidy_status": "2025年享受补助",
      "image_url": "https://www.js365.org.cn/oss/js365/upload/20240731/1b8af84fb9254703978e9d91c70d0847.jpg",
      "facilities": "",
      "projects": "",
      "remarks": ""
    },
    {
      "id": 42,
      "name": "邱县体育场",
      "location": {
        "province": "河北省",
        "city": "邯郸市",
        "district": "-邯郸市",
        "full_address": "河北省-邯郸市"
      },
      "sports_types": [],
      "description": "地址：河北省邯郸市邱县新马头镇乡镇世纪大街街路东号",
      "facility_type": "体育场",
      "operator": "邱县新阳物业服务有限公司",
      "build_year": 2023,
      "indicators": {
        "building_area": 2722.0,
        "site_area": 31000.0,
        "land_area": 31000.0,
        "core_area": 22000.0,
        "core_free_area": 22000.0,
        "outdoor_area": 9000.0,
        "outdoor_free_area": 9000.0,
        "seats": 2500,
        "core_courts": 2,
        "outdoor_courts": 1,
        "has_outdoor_fitness": false,
        "daily_visitors": 174
      },
      "subsidy_status": "2025年享受补助",
      "image_url": "https://www.js365.org.cn/oss/js365/upload/20230616/5578e728f5c64c8ea2c222cfa7d94495.jpg",
      "facilities": "",
      "projects": "",
      "remarks": ""
    },
    {
      "id": 43,
      "name": "卢龙县体育馆",
      "location": {
        "province": "河北省",
        "city": "秦皇岛市",
        "district": "-秦皇岛市",
        "full_address": "河北省-秦皇岛市"
      },
      "sports_types": [],
      "description": "地址：河北省秦皇岛市卢龙县卢龙镇乡镇永平大街街116号",
      "facility_type": "体育馆",
      "operator": "卢龙县教育和体育局",
      "build_year": 2011,
      "indicators": {
        "building_area": 8678.0,
        "site_area": 4500.0,
        "land_area": 15917.0,
        "core_area": 2922.0,
        "core_free_area": 2922.0,
        "outdoor_area": 0.0,
        "outdoor_free_area": 0.0,
        "seats": 1374,
        "core_courts": 3,
        "outdoor_courts": 0,
        "has_outdoor_fitness": false,
        "daily_visitors": 0
      },
      "subsidy_status": "2025年享受补助",
      "image_url": "",
      "facilities": "",
      "projects": "",
      "remarks": ""
    },
    {
      "id": 44,
      "name": "涉县体育场",
      "location": {
        "province": "河北省",
        "city": "邯郸市",
        "district": "-邯郸市",
        "full_address": "河北省-邯郸市"
      },
      "sports_types": [],
      "description": "地址：河北省邯郸市涉县平安街道龙山大街街592号",
      "facility_type": "体育场",
      "operator": "涉县青少年活动中心",
      "build_year": 2012,
      "indicators": {
        "building_area": 10090.0,
        "site_area": 28000.0,
        "land_area": 46666.67,
        "core_area": 22000.0,
        "core_free_area": 22000.0,
        "outdoor_area": 6000.0,
        "outdoor_free_area": 6000.0,
        "seats": 12012,
        "core_courts": 4,
        "outdoor_courts": 2,
        "has_outdoor_fitness": false,
        "daily_visitors": 165
      },
      "subsidy_status": "2025年享受补助",
      "image_url": "https://js365.org.cn/oss/js365/upload/2021/07/23/673b7310-5ed9-478f-8847-79aa288b3524.jpg",
      "facilities": "",
      "projects": "",
      "remarks": ""
    },
    {
      "id": 45,
      "name": "邯郸市体育运动学校滑冰馆",
      "location": {
        "province": "河北省",
        "city": "邯郸市",
        "district": "-邯郸市",
        "full_address": "河北省-邯郸市"
      },
      "sports_types": [],
      "description": "地址：河北省邯郸市丛台区黄粱梦镇乡镇107国道东侧街04-01-75-1号",
      "facility_type": "体育馆",
      "operator": "邯郸市体育运动学校",
      "build_year": 2022,
      "indicators": {
        "building_area": 18006.0,
        "site_area": 18006.0,
        "land_area": 21148.5,
        "core_area": 1830.0,
        "core_free_area": 1830.0,
        "outdoor_area": 16176.0,
        "outdoor_free_area": 6817.0,
        "seats": 200,
        "core_courts": 1,
        "outdoor_courts": 1,
        "has_outdoor_fitness": false,
        "daily_visitors": 162
      },
      "subsidy_status": "2025年享受补助",
      "image_url": "https://www.js365.org.cn/oss/js365/upload/20230712/598d0fbeee9941b1962481636dbae067.jpg",
      "facilities": "",
      "projects": "",
      "remarks": ""
    },
    {
      "id": 46,
      "name": "唐山高新区滑冰馆",
      "location": {
        "province": "河北省",
        "city": "唐山市",
        "district": "-唐山市",
        "full_address": "河北省-唐山市"
      },
      "sports_types": [],
      "description": "地址：河北省唐山市高新区庆北街道学院街1707号",
      "facility_type": "体育馆",
      "operator": "河北瑞翔体育文化发展有限公司",
      "build_year": 2022,
      "indicators": {
        "building_area": 10420.0,
        "site_area": 30420.0,
        "land_area": 28000.0,
        "core_area": 10420.0,
        "core_free_area": 1830.0,
        "outdoor_area": 20000.0,
        "outdoor_free_area": 20000.0,
        "seats": 1310,
        "core_courts": 1,
        "outdoor_courts": 1,
        "has_outdoor_fitness": false,
        "daily_visitors": 162
      },
      "subsidy_status": "2025年享受补助",
      "image_url": "https://www.js365.org.cn/oss/js365/upload/20230616/65459a5ea6c3453ca053bfc5e8a067f4.jpg",
      "facilities": "",
      "projects": "",
      "remarks": ""
    },
    {
      "id": 47,
      "name": "康保县公共体育场",
      "location": {
        "province": "河北省",
        "city": "张家口市",
        "district": "-张家口市",
        "full_address": "河北省-张家口市"
      },
      "sports_types": [],
      "description": "地址：河北省张家口市康保县建设大街街道建设大街街18号",
      "facility_type": "体育场",
      "operator": "康保县教育和体育局",
      "build_year": 2022,
      "indicators": {
        "building_area": 5400.0,
        "site_area": 20385.2,
        "land_area": 32424.0,
        "core_area": 16238.8,
        "core_free_area": 16238.8,
        "outdoor_area": 4146.4,
        "outdoor_free_area": 4146.4,
        "seats": 1030,
        "core_courts": 7,
        "outdoor_courts": 1,
        "has_outdoor_fitness": false,
        "daily_visitors": 151
      },
      "subsidy_status": "2025年享受补助",
      "image_url": "https://www.js365.org.cn/oss/js365/upload/20230626/966fdf32d773435698a1fffdae778d85.jpeg",
      "facilities": "",
      "projects": "",
      "remarks": ""
    },
    {
      "id": 48,
      "name": "涉县滑冰馆",
      "location": {
        "province": "河北省",
        "city": "邯郸市",
        "district": "-邯郸市",
        "full_address": "河北省-邯郸市"
      },
      "sports_types": [],
      "description": "地址：河北省邯郸市涉县平安街道龙山大街街535号",
      "facility_type": "体育馆",
      "operator": "涉县教育体育局",
      "build_year": 2020,
      "indicators": {
        "building_area": 412.0,
        "site_area": 310.0,
        "land_area": 412.0,
        "core_area": 310.0,
        "core_free_area": 310.0,
        "outdoor_area": 102.0,
        "outdoor_free_area": 102.0,
        "seats": 20,
        "core_courts": 1,
        "outdoor_courts": 1,
        "has_outdoor_fitness": false,
        "daily_visitors": 151
      },
      "subsidy_status": "2025年享受补助",
      "image_url": "https://js365.org.cn/oss/js365/upload/2021/07/23/84dcd8f4-b884-41d7-9cae-874c722c4199.jpg",
      "facilities": "",
      "projects": "",
      "remarks": ""
    },
    {
      "id": 49,
      "name": "怀安县乒羽球馆",
      "location": {
        "province": "河北省",
        "city": "张家口市",
        "district": "-张家口市",
        "full_address": "河北省-张家口市"
      },
      "sports_types": [],
      "description": "地址：河北省张家口市怀安县柴沟堡乡镇生产街13号",
      "facility_type": "",
      "operator": "怀安县教育体育和科学技术局",
      "build_year": 1992,
      "indicators": {
        "building_area": 1060.0,
        "site_area": 820.0,
        "land_area": 1230.0,
        "core_area": 798.0,
        "core_free_area": 798.0,
        "outdoor_area": 1200.0,
        "outdoor_free_area": 1200.0,
        "seats": 150,
        "core_courts": 3,
        "outdoor_courts": 3,
        "has_outdoor_fitness": false,
        "daily_visitors": 148
      },
      "subsidy_status": "2025年享受补助",
      "image_url": "https://js365.org.cn/oss/js365/upload/2021/10/14/c7851e4a-4b77-4260-99bb-33f741ace354.jpg",
      "facilities": "",
      "projects": "",
      "remarks": ""
    },
    {
      "id": 50,
      "name": "东光县体育场",
      "location": {
        "province": "河北省",
        "city": "沧州市",
        "district": "-沧州市",
        "full_address": "河北省-沧州市"
      },
      "sports_types": [],
      "description": "地址：河北省沧州市东光县东光镇乡镇建设大街街无号",
      "facility_type": "体育场",
      "operator": "东光县文体广电和旅游局",
      "build_year": 2019,
      "indicators": {
        "building_area": 16000.0,
        "site_area": 25400.0,
        "land_area": 25400.0,
        "core_area": 15000.0,
        "core_free_area": 15000.0,
        "outdoor_area": 10400.0,
        "outdoor_free_area": 10400.0,
        "seats": 300,
        "core_courts": 4,
        "outdoor_courts": 4,
        "has_outdoor_fitness": false,
        "daily_visitors": 222
      },
      "subsidy_status": "2025年享受补助",
      "image_url": "https://js365.org.cn/oss/js365/upload/2021/06/09/71e69012-b94b-4316-87a5-39be3a8e4969.png",
      "facilities": "",
      "projects": "",
      "remarks": ""
    },
    {
      "id": 51,
      "name": "张家口市宣化区全民健身中心",
      "location": {
        "province": "河北省",
        "city": "张家口市",
        "district": "-张家口市",
        "full_address": "河北省-张家口市"
      },
      "sports_types": [],
      "description": "地址：河北省张家口市宣化区南关街道西关门外巷街66号",
      "facility_type": "健身中心",
      "operator": "张家口健奥文化体育场发展有限公司",
      "build_year": 2011,
      "indicators": {
        "building_area": 3458.0,
        "site_area": 3458.0,
        "land_area": 4342.0,
        "core_area": 2000.0,
        "core_free_area": 2000.0,
        "outdoor_area": 1458.0,
        "outdoor_free_area": 1458.0,
        "seats": 0,
        "core_courts": 4,
        "outdoor_courts": 1,
        "has_outdoor_fitness": false,
        "daily_visitors": 136
      },
      "subsidy_status": "2025年享受补助",
      "image_url": "https://js365.org.cn/oss/js365/upload/2021/04/30/e402d2ec-9ded-48e7-8881-8d51eda88519.jpg",
      "facilities": "",
      "projects": "",
      "remarks": ""
    },
    {
      "id": 52,
      "name": "赞皇县全民健身中心",
      "location": {
        "province": "河北省",
        "city": "石家庄市",
        "district": "-石家庄市",
        "full_address": "河北省-石家庄市滑冰,篮球"
      },
      "sports_types": [],
      "description": "地址：河北省石家庄市赞皇县西龙门乡镇布古庄村二中南邻null号",
      "facility_type": "健身中心",
      "operator": "赞皇县文化广电体育和旅游局",
      "build_year": 2017,
      "indicators": {
        "building_area": 4200.0,
        "site_area": 8000.0,
        "land_area": 12000.0,
        "core_area": 1800.0,
        "core_free_area": 1800.0,
        "outdoor_area": 6200.0,
        "outdoor_free_area": 6200.0,
        "seats": 0,
        "core_courts": 5,
        "outdoor_courts": 1,
        "has_outdoor_fitness": false,
        "daily_visitors": 132
      },
      "subsidy_status": "2025年享受补助",
      "image_url": "https://js365.org.cn/oss/js365/upload/2021/05/13/46665371-30b6-45d7-b98a-9db1f0bd83cf.png",
      "facilities": "",
      "projects": "",
      "remarks": ""
    },
    {
      "id": 53,
      "name": "容东悦动运动健康中心",
      "location": {
        "province": "河北省",
        "city": "",
        "district": "-雄安新区",
        "full_address": "河北省-雄安新区"
      },
      "sports_types": [],
      "description": "地址：河北省雄安新区雄安新区八于乡乡镇八于街街137-1号",
      "facility_type": "健身中心",
      "operator": "河北雄安乐动健康科技有限公司",
      "build_year": 2021,
      "indicators": {
        "building_area": 24417.89,
        "site_area": 2154.0,
        "land_area": 7187.0,
        "core_area": 1600.0,
        "core_free_area": 1600.0,
        "outdoor_area": 554.0,
        "outdoor_free_area": 554.0,
        "seats": 0,
        "core_courts": 3,
        "outdoor_courts": 6,
        "has_outdoor_fitness": false,
        "daily_visitors": 127
      },
      "subsidy_status": "2025年享受补助",
      "image_url": "https://www.js365.org.cn/oss/js365/upload/20230629/e6107fc0401c48cf8eecfb80d168a9c9.jpg",
      "facilities": "",
      "projects": "",
      "remarks": ""
    },
    {
      "id": 54,
      "name": "唐山市体育中心跳水馆",
      "location": {
        "province": "河北省",
        "city": "唐山市",
        "district": "-唐山市",
        "full_address": "河北省-唐山市"
      },
      "sports_types": [],
      "description": "地址：河北省唐山市路北区文化路街道建设南路92号",
      "facility_type": "公共游泳(跳水)",
      "operator": "唐山市体育中心",
      "build_year": 2005,
      "indicators": {
        "building_area": 3254.18,
        "site_area": 2780.0,
        "land_area": 13060.0,
        "core_area": 780.0,
        "core_free_area": 780.0,
        "outdoor_area": 2000.0,
        "outdoor_free_area": 2000.0,
        "seats": 200,
        "core_courts": 1,
        "outdoor_courts": 1,
        "has_outdoor_fitness": false,
        "daily_visitors": 126
      },
      "subsidy_status": "2025年享受补助",
      "image_url": "https://js365.org.cn/oss/js365/upload/2021/10/13/aeec3266-1cc5-466f-b021-e9f4d8df3806.jpg",
      "facilities": "",
      "projects": "",
      "remarks": ""
    },
    {
      "id": 55,
      "name": "廊坊市游泳馆",
      "location": {
        "province": "河北省",
        "city": "廊坊市",
        "district": "-廊坊市",
        "full_address": "河北省-廊坊市"
      },
      "sports_types": [],
      "description": "地址：河北省廊坊市广阳区耀华道街道北凤道街318号",
      "facility_type": "公共游泳(跳水)",
      "operator": "廊坊市游泳馆",
      "build_year": 2002,
      "indicators": {
        "building_area": 4757.0,
        "site_area": 1244.0,
        "land_area": 9000.0,
        "core_area": 744.0,
        "core_free_area": 744.0,
        "outdoor_area": 500.0,
        "outdoor_free_area": 500.0,
        "seats": 200,
        "core_courts": 1,
        "outdoor_courts": 4,
        "has_outdoor_fitness": false,
        "daily_visitors": 124
      },
      "subsidy_status": "2025年享受补助",
      "image_url": "https://js365.org.cn/oss/js365/js365/upload/20220621/df57dc13ec974c1b8451123ab06dfe9f.jpg",
      "facilities": "",
      "projects": "",
      "remarks": ""
    },
    {
      "id": 56,
      "name": "石家庄市中山体育馆",
      "location": {
        "province": "河北省",
        "city": "石家庄市",
        "district": "-石家庄市",
        "full_address": "河北省-石家庄市"
      },
      "sports_types": [],
      "description": "地址：河北省石家庄市桥西区维明街道自强路117号",
      "facility_type": "体育馆",
      "operator": "石家庄市中山体育场",
      "build_year": 1994,
      "indicators": {
        "building_area": 12000.0,
        "site_area": 1500.0,
        "land_area": 4384.74,
        "core_area": 1500.0,
        "core_free_area": 1500.0,
        "outdoor_area": 17000.0,
        "outdoor_free_area": 1.0,
        "seats": 3800,
        "core_courts": 1,
        "outdoor_courts": 1,
        "has_outdoor_fitness": false,
        "daily_visitors": 118
      },
      "subsidy_status": "2025年享受补助",
      "image_url": "https://www.js365.org.cn/oss/js365/upload/20240725/fc5c888aeb514a94884f49f631d50ff9.jpg",
      "facilities": "",
      "projects": "",
      "remarks": ""
    },
    {
      "id": 57,
      "name": "武安市文化体育中心体育馆",
      "location": {
        "province": "河北省",
        "city": "邯郸市",
        "district": "-邯郸市",
        "full_address": "河北省-邯郸市"
      },
      "sports_types": [],
      "description": "地址：河北省邯郸市武安市新华街道体育路交叉口东南角号",
      "facility_type": "体育馆",
      "operator": "河北中茂卓汇文化传播有限公司",
      "build_year": 2012,
      "indicators": {
        "building_area": 20000.0,
        "site_area": 20000.0,
        "land_area": 23000.0,
        "core_area": 5000.0,
        "core_free_area": 5000.0,
        "outdoor_area": 9000.0,
        "outdoor_free_area": 3000.0,
        "seats": 2500,
        "core_courts": 3,
        "outdoor_courts": 2,
        "has_outdoor_fitness": false,
        "daily_visitors": 116
      },
      "subsidy_status": "2025年享受补助",
      "image_url": "https://js365.org.cn/oss/js365/upload/2021/07/20/fb6dd7b3-5967-46b6-9da3-ca13bd4f5b72.jpg",
      "facilities": "",
      "projects": "",
      "remarks": ""
    },
    {
      "id": 58,
      "name": "邢台市体育馆",
      "location": {
        "province": "河北省",
        "city": "邢台市",
        "district": "-邢台市",
        "full_address": "河北省-邢台市"
      },
      "sports_types": [],
      "description": "地址：河北省邢台市信都区中兴西街道中兴西大街368号",
      "facility_type": "体育馆",
      "operator": "邢台市体育馆",
      "build_year": 1991,
      "indicators": {
        "building_area": 8050.0,
        "site_area": 8400.0,
        "land_area": 12000.0,
        "core_area": 1400.0,
        "core_free_area": 1400.0,
        "outdoor_area": 7000.0,
        "outdoor_free_area": 7000.0,
        "seats": 3850,
        "core_courts": 9,
        "outdoor_courts": 1,
        "has_outdoor_fitness": false,
        "daily_visitors": 116
      },
      "subsidy_status": "2025年享受补助",
      "image_url": "https://js365.org.cn/oss/js365/upload/2021/07/20/7b551d45-ce66-4805-b27f-f14a71bc24ae.jpg",
      "facilities": "",
      "projects": "",
      "remarks": ""
    },
    {
      "id": 59,
      "name": "滦南县全民健身活动中心",
      "location": {
        "province": "河北省",
        "city": "唐山市",
        "district": "-唐山市",
        "full_address": "河北省-唐山市"
      },
      "sports_types": [],
      "description": "地址：河北省唐山市滦南县友谊路街道友谊路00号",
      "facility_type": "健身中心",
      "operator": "滦南县文化广电和旅游局",
      "build_year": 2020,
      "indicators": {
        "building_area": 2603.6,
        "site_area": 3726.6,
        "land_area": 6146.0,
        "core_area": 2203.6,
        "core_free_area": 2203.6,
        "outdoor_area": 1523.0,
        "outdoor_free_area": 1523.0,
        "seats": 0,
        "core_courts": 5,
        "outdoor_courts": 1,
        "has_outdoor_fitness": false,
        "daily_visitors": 110
      },
      "subsidy_status": "2025年享受补助",
      "image_url": "https://js365.org.cn/oss/js365/upload/2021/04/30/46d1aa9b-273f-4b31-9a7d-74e887ddbf95.jpg",
      "facilities": "",
      "projects": "",
      "remarks": ""
    },
    {
      "id": 60,
      "name": "宽城教育园区体育馆",
      "location": {
        "province": "河北省",
        "city": "承德市",
        "district": "-承德市",
        "full_address": "河北省-承德市"
      },
      "sports_types": [],
      "description": "地址：河北省承德市宽城满族自治县宽城乡镇学苑东路12号",
      "facility_type": "体育馆",
      "operator": "宽城满族自治县民族教育园区管理中心",
      "build_year": 2013,
      "indicators": {
        "building_area": 7660.0,
        "site_area": 10000.0,
        "land_area": 10000.0,
        "core_area": 2120.0,
        "core_free_area": 2120.0,
        "outdoor_area": 7880.0,
        "outdoor_free_area": 7880.0,
        "seats": 3000,
        "core_courts": 5,
        "outdoor_courts": 2,
        "has_outdoor_fitness": false,
        "daily_visitors": 108
      },
      "subsidy_status": "2025年享受补助",
      "image_url": "https://js365.org.cn/oss/js365/upload/2021/07/23/399eac90-0db7-4fdf-b75a-83f61a3f5127.jpg",
      "facilities": "",
      "projects": "",
      "remarks": ""
    },
    {
      "id": 61,
      "name": "平泉市体育活动中心",
      "location": {
        "province": "河北省",
        "city": "承德市",
        "district": "-承德市",
        "full_address": "河北省-承德市"
      },
      "sports_types": [],
      "description": "地址：河北省承德市平泉市城区街道府前街街19号",
      "facility_type": "体育馆",
      "operator": "平泉市体育活动中心",
      "build_year": 2007,
      "indicators": {
        "building_area": 6072.0,
        "site_area": 5040.0,
        "land_area": 25040.0,
        "core_area": 5040.0,
        "core_free_area": 5040.0,
        "outdoor_area": 0.0,
        "outdoor_free_area": 0.0,
        "seats": 450,
        "core_courts": 1,
        "outdoor_courts": 0,
        "has_outdoor_fitness": false,
        "daily_visitors": 105
      },
      "subsidy_status": "2025年享受补助",
      "image_url": "https://js365.org.cn/oss/js365/js365/upload/20220624/f00256774bbb4cfeb143977d590408b5.jpg",
      "facilities": "",
      "projects": "",
      "remarks": ""
    },
    {
      "id": 62,
      "name": "宁晋县全民健身中心",
      "location": {
        "province": "河北省",
        "city": "邢台市",
        "district": "-邢台市",
        "full_address": "河北省-邢台市"
      },
      "sports_types": [],
      "description": "地址：河北省邢台市宁晋县凤凰镇乡镇西关街31号",
      "facility_type": "健身中心",
      "operator": "宁晋县唯信物业管理有限公司",
      "build_year": 2020,
      "indicators": {
        "building_area": 2956.09,
        "site_area": 3000.0,
        "land_area": 2846.85,
        "core_area": 2500.0,
        "core_free_area": 2500.0,
        "outdoor_area": 500.0,
        "outdoor_free_area": 0.0,
        "seats": 0,
        "core_courts": 7,
        "outdoor_courts": 0,
        "has_outdoor_fitness": false,
        "daily_visitors": 104
      },
      "subsidy_status": "2025年享受补助",
      "image_url": "https://js365.org.cn/oss/js365/upload/2021/06/08/35896485-a0c3-457f-9585-bdb1aafdfb3b.jpg",
      "facilities": "",
      "projects": "",
      "remarks": ""
    },
    {
      "id": 63,
      "name": "保定市第二重点业余体校运动场",
      "location": {
        "province": "河北省",
        "city": "保定市",
        "district": "-保定市",
        "full_address": "河北省-保定市"
      },
      "sports_types": [],
      "description": "地址：河北省保定市莲池区五四路街道街道七一中路路739号号",
      "facility_type": "体育场",
      "operator": "保定市第二重点业余体校",
      "build_year": 1983,
      "indicators": {
        "building_area": 19720.0,
        "site_area": 19720.0,
        "land_area": 37048.0,
        "core_area": 18520.0,
        "core_free_area": 18520.0,
        "outdoor_area": 0.0,
        "outdoor_free_area": 0.0,
        "seats": 500,
        "core_courts": 0,
        "outdoor_courts": 0,
        "has_outdoor_fitness": false,
        "daily_visitors": 103
      },
      "subsidy_status": "2025年享受补助",
      "image_url": "https://www.js365.org.cn/oss/js365/upload/20240715/52b459cf8f8746dfaa32040392661612.jpg",
      "facilities": "",
      "projects": "",
      "remarks": ""
    },
    {
      "id": 64,
      "name": "定州市体育场",
      "location": {
        "province": "河北省",
        "city": "保定市",
        "district": "-保定市",
        "full_address": "河北省-保定市"
      },
      "sports_types": [],
      "description": "地址：河北省保定市定州市北城区街道中山中路定州市体育场门牌",
      "facility_type": "体育场",
      "operator": "定州市青少年业余体育学校",
      "build_year": 1974,
      "indicators": {
        "building_area": 896.0,
        "site_area": 23732.0,
        "land_area": 24617.04,
        "core_area": 23732.0,
        "core_free_area": 23732.0,
        "outdoor_area": 0.0,
        "outdoor_free_area": 0.0,
        "seats": 858,
        "core_courts": 1,
        "outdoor_courts": 1,
        "has_outdoor_fitness": false,
        "daily_visitors": 101
      },
      "subsidy_status": "2025年享受补助",
      "image_url": "https://js365.org.cn/oss/js365/js365/upload/20220728/b925a1113fa149cfae17fc15236594f2.jpg",
      "facilities": "",
      "projects": "",
      "remarks": ""
    },
    {
      "id": 65,
      "name": "滦平县青少年活动中心",
      "location": {
        "province": "河北省",
        "city": "承德市",
        "district": "-承德市",
        "full_address": "河北省-承德市"
      },
      "sports_types": [],
      "description": "地址：河北省承德市滦平县滦平县街道河滨路2号",
      "facility_type": "健身中心",
      "operator": "滦平县青少年活动中心",
      "build_year": 2014,
      "indicators": {
        "building_area": 2400.0,
        "site_area": 4000.0,
        "land_area": 3000.0,
        "core_area": 2000.0,
        "core_free_area": 2000.0,
        "outdoor_area": 3000.0,
        "outdoor_free_area": 3000.0,
        "seats": 0,
        "core_courts": 8,
        "outdoor_courts": 1,
        "has_outdoor_fitness": false,
        "daily_visitors": 97
      },
      "subsidy_status": "2025年享受补助",
      "image_url": "https://js365.org.cn/oss/js365/upload/2021/06/25/7f564905-492e-408c-8d14-2df48fb3f3a3.jpg",
      "facilities": "",
      "projects": "",
      "remarks": ""
    },
    {
      "id": 66,
      "name": "正定县全民健身中心",
      "location": {
        "province": "河北省",
        "city": "石家庄市",
        "district": "-石家庄市",
        "full_address": "河北省-石家庄市"
      },
      "sports_types": [],
      "description": "地址：河北省石家庄市正定县正定镇乡镇常山东路路15号",
      "facility_type": "健身中心",
      "operator": "河北元禾物业管理有限公司",
      "build_year": 2023,
      "indicators": {
        "building_area": 3871.77,
        "site_area": 3100.0,
        "land_area": 6000.0,
        "core_area": 2100.0,
        "core_free_area": 2100.0,
        "outdoor_area": 1000.0,
        "outdoor_free_area": 1000.0,
        "seats": 0,
        "core_courts": 3,
        "outdoor_courts": 3,
        "has_outdoor_fitness": false,
        "daily_visitors": 92
      },
      "subsidy_status": "2025年享受补助",
      "image_url": "https://www.js365.org.cn/oss/js365/upload/20230620/92ec10b4271b4bacb86ab00df6a6a839.jpg",
      "facilities": "",
      "projects": "",
      "remarks": ""
    },
    {
      "id": 67,
      "name": "廊坊市体育馆",
      "location": {
        "province": "河北省",
        "city": "廊坊市",
        "district": "-廊坊市",
        "full_address": "河北省-廊坊市"
      },
      "sports_types": [],
      "description": "地址：河北省廊坊市广阳区金源街道和平路189号",
      "facility_type": "体育馆",
      "operator": "廊坊市体育馆",
      "build_year": 1999,
      "indicators": {
        "building_area": 8300.0,
        "site_area": 11800.0,
        "land_area": 33333.33,
        "core_area": 1800.0,
        "core_free_area": 1800.0,
        "outdoor_area": 10000.0,
        "outdoor_free_area": 10000.0,
        "seats": 3200,
        "core_courts": 4,
        "outdoor_courts": 9,
        "has_outdoor_fitness": false,
        "daily_visitors": 91
      },
      "subsidy_status": "2025年享受补助",
      "image_url": "https://js365.org.cn/oss/js365/upload/2021/07/20/ef3b67bb-25f1-46c9-93a2-bb815acf188b.jpg",
      "facilities": "",
      "projects": "",
      "remarks": ""
    },
    {
      "id": 68,
      "name": "唐山新体育中心体育场",
      "location": {
        "province": "河北省",
        "city": "唐山市",
        "district": "-唐山市",
        "full_address": "河北省-唐山市"
      },
      "sports_types": [],
      "description": "地址：河北省唐山市路南区梁家屯街道卫国路与新岳道交口门牌",
      "facility_type": "体育场",
      "operator": "唐山文旅体育场馆运营管理有限公司",
      "build_year": 2019,
      "indicators": {
        "building_area": 68455.0,
        "site_area": 88185.15,
        "land_area": 103415.15,
        "core_area": 21966.98,
        "core_free_area": 21966.98,
        "outdoor_area": 66218.17,
        "outdoor_free_area": 5340.0,
        "seats": 35000,
        "core_courts": 1,
        "outdoor_courts": 8,
        "has_outdoor_fitness": false,
        "daily_visitors": 89
      },
      "subsidy_status": "2025年享受补助",
      "image_url": "https://www.js365.org.cn/oss/js365/upload/20230614/4a1f0b3247d34234b27d7c69f5a51754.jpg",
      "facilities": "",
      "projects": "",
      "remarks": ""
    },
    {
      "id": 69,
      "name": "临漳县体育中心体育场",
      "location": {
        "province": "河北省",
        "city": "邯郸市",
        "district": "-邯郸市",
        "full_address": "河北省-邯郸市"
      },
      "sports_types": [],
      "description": "地址：河北省邯郸市临漳县临漳镇街道金凤南大街街36号",
      "facility_type": "体育场",
      "operator": "临漳县体育总会",
      "build_year": 2012,
      "indicators": {
        "building_area": 42000.0,
        "site_area": 42000.0,
        "land_area": 42000.0,
        "core_area": 26000.0,
        "core_free_area": 26000.0,
        "outdoor_area": 16000.0,
        "outdoor_free_area": 16000.0,
        "seats": 4300,
        "core_courts": 5,
        "outdoor_courts": 1,
        "has_outdoor_fitness": false,
        "daily_visitors": 88
      },
      "subsidy_status": "2025年享受补助",
      "image_url": "https://js365.org.cn/oss/js365/upload/2021/05/06/e4312fae-215d-4597-852b-352d6638bb83.jpg",
      "facilities": "",
      "projects": "",
      "remarks": ""
    },
    {
      "id": 70,
      "name": "唐山市体育中心多功能体育馆",
      "location": {
        "province": "河北省",
        "city": "唐山市",
        "district": "-唐山市",
        "full_address": "河北省-唐山市"
      },
      "sports_types": [],
      "description": "地址：河北省唐山市路北区文化路街道建设南路92号",
      "facility_type": "体育馆",
      "operator": "唐山市体育中心",
      "build_year": 1995,
      "indicators": {
        "building_area": 4008.0,
        "site_area": 3800.0,
        "land_area": 17300.0,
        "core_area": 1120.0,
        "core_free_area": 1120.0,
        "outdoor_area": 2680.0,
        "outdoor_free_area": 2680.0,
        "seats": 1500,
        "core_courts": 1,
        "outdoor_courts": 4,
        "has_outdoor_fitness": false,
        "daily_visitors": 83
      },
      "subsidy_status": "2025年享受补助",
      "image_url": "https://js365.org.cn/oss/js365/upload/2021/10/13/8f626055-1c97-4cb1-979c-f5fe5c1a9829.jpg",
      "facilities": "",
      "projects": "",
      "remarks": ""
    },
    {
      "id": 71,
      "name": "尚义县室内滑冰馆",
      "location": {
        "province": "河北省",
        "city": "张家口市",
        "district": "-张家口市",
        "full_address": "河北省-张家口市"
      },
      "sports_types": [],
      "description": "地址：河北省张家口市尚义县南壕堑镇乡镇秀水大街街30号号",
      "facility_type": "体育馆",
      "operator": "尚义县教育体育和科学技术局",
      "build_year": 2022,
      "indicators": {
        "building_area": 3321.0,
        "site_area": 3268.0,
        "land_area": 5054.0,
        "core_area": 1835.0,
        "core_free_area": 1835.0,
        "outdoor_area": 1733.0,
        "outdoor_free_area": 1733.0,
        "seats": 300,
        "core_courts": 3,
        "outdoor_courts": 2,
        "has_outdoor_fitness": false,
        "daily_visitors": 80
      },
      "subsidy_status": "2025年享受补助",
      "image_url": "https://www.js365.org.cn/oss/js365/upload/20230626/6f28f0fa7e3b4d8987dbce5a5486ddfd.jpg",
      "facilities": "",
      "projects": "",
      "remarks": ""
    },
    {
      "id": 72,
      "name": "柏乡县全民健身中心",
      "location": {
        "province": "河北省",
        "city": "邢台市",
        "district": "-邢台市",
        "full_address": "河北省-邢台市"
      },
      "sports_types": [],
      "description": "地址：河北省邢台市柏乡县柏乡乡镇迎宾路99号",
      "facility_type": "健身中心",
      "operator": "柏乡县教育文化广电体育和旅游局",
      "build_year": 2016,
      "indicators": {
        "building_area": 1300.0,
        "site_area": 1300.0,
        "land_area": 2500.0,
        "core_area": 1100.0,
        "core_free_area": 1100.0,
        "outdoor_area": 200.0,
        "outdoor_free_area": 1200.0,
        "seats": 0,
        "core_courts": 9,
        "outdoor_courts": 2,
        "has_outdoor_fitness": false,
        "daily_visitors": 77
      },
      "subsidy_status": "2025年享受补助",
      "image_url": "https://js365.org.cn/oss/js365/upload/2021/07/22/84d45c8d-a0fc-4d39-80b2-fccbf82ff9d2.jpg",
      "facilities": "",
      "projects": "",
      "remarks": ""
    },
    {
      "id": 73,
      "name": "承德县综合滑冰馆",
      "location": {
        "province": "河北省",
        "city": "承德市",
        "district": "-承德市",
        "full_address": "河北省-承德市"
      },
      "sports_types": [],
      "description": "地址：河北省承德市承德县下板城街道劲牛广场街1号",
      "facility_type": "",
      "operator": "承德县教育和体育局",
      "build_year": 2020,
      "indicators": {
        "building_area": 3370.0,
        "site_area": 5800.0,
        "land_area": 12600.0,
        "core_area": 2600.0,
        "core_free_area": 2600.0,
        "outdoor_area": 10000.0,
        "outdoor_free_area": 10000.0,
        "seats": 0,
        "core_courts": 4,
        "outdoor_courts": 1,
        "has_outdoor_fitness": false,
        "daily_visitors": 66
      },
      "subsidy_status": "2025年享受补助",
      "image_url": "https://js365.org.cn/oss/js365/js365/upload/20220714/ce6380ffab7e45b5b9a1c31ca8169acb.png",
      "facilities": "",
      "projects": "",
      "remarks": ""
    },
    {
      "id": 74,
      "name": "隆化县奥体中心",
      "location": {
        "province": "河北省",
        "city": "承德市",
        "district": "-承德市",
        "full_address": "河北省-承德市"
      },
      "sports_types": [],
      "description": "地址：河北省承德市隆化县安洲街道街道河东大街街134号",
      "facility_type": "体育馆",
      "operator": "隆化县奥体中心",
      "build_year": 2012,
      "indicators": {
        "building_area": 9904.14,
        "site_area": 46991.68,
        "land_area": 51635.82,
        "core_area": 5260.0,
        "core_free_area": 5260.0,
        "outdoor_area": 0.0,
        "outdoor_free_area": 0.0,
        "seats": 3000,
        "core_courts": 0,
        "outdoor_courts": 0,
        "has_outdoor_fitness": false,
        "daily_visitors": 58
      },
      "subsidy_status": "2025年享受补助",
      "image_url": "https://js365.org.cn/oss/js365/upload/2021/10/10/f6b50563-003c-4e04-9321-ad9e3921d1f5.jpg",
      "facilities": "",
      "projects": "",
      "remarks": ""
    },
    {
      "id": 75,
      "name": "平乡县全民健身中心",
      "location": {
        "province": "河北省",
        "city": "邢台市",
        "district": "-邢台市",
        "full_address": "河北省-邢台市"
      },
      "sports_types": [],
      "description": "地址：河北省邢台市平乡县G230街道建设大街街南段号",
      "facility_type": "健身中心",
      "operator": "北京祥云盛世体育文化发展有限公司",
      "build_year": 2014,
      "indicators": {
        "building_area": 4675.0,
        "site_area": 13333.0,
        "land_area": 13333.0,
        "core_area": 4011.0,
        "core_free_area": 4011.0,
        "outdoor_area": 9322.0,
        "outdoor_free_area": 9322.0,
        "seats": 0,
        "core_courts": 5,
        "outdoor_courts": 0,
        "has_outdoor_fitness": false,
        "daily_visitors": 57
      },
      "subsidy_status": "2025年享受补助",
      "image_url": "https://js365.org.cn/oss/js365/upload/2021/05/08/297f5edb-7bed-4109-b1fa-b949f2466a1a.jpg",
      "facilities": "",
      "projects": "",
      "remarks": ""
    },
    {
      "id": 76,
      "name": "高邑县公共体育馆",
      "location": {
        "province": "河北省",
        "city": "石家庄市",
        "district": "-石家庄市",
        "full_address": "河北省-石家庄市"
      },
      "sports_types": [],
      "description": "地址：河北省石家庄市高邑县高邑镇乡镇北关村太行路152号",
      "facility_type": "体育馆",
      "operator": "高邑县拳击协会",
      "build_year": 2019,
      "indicators": {
        "building_area": 5000.0,
        "site_area": 11500.0,
        "land_area": 13320.0,
        "core_area": 1500.0,
        "core_free_area": 700.0,
        "outdoor_area": 10000.0,
        "outdoor_free_area": 1200.0,
        "seats": 100,
        "core_courts": 3,
        "outdoor_courts": 2,
        "has_outdoor_fitness": false,
        "daily_visitors": 57
      },
      "subsidy_status": "2025年享受补助",
      "image_url": "https://js365.org.cn/oss/js365/js365/upload/20220624/02dcf9ebd3124dbea6c12190a8558371.jpg",
      "facilities": "",
      "projects": "",
      "remarks": ""
    },
    {
      "id": 77,
      "name": "唐山九江体育中心游泳馆",
      "location": {
        "province": "河北省",
        "city": "唐山市",
        "district": "-唐山市",
        "full_address": "河北省-唐山市"
      },
      "sports_types": [],
      "description": "地址：河北省唐山市迁安市永顺街道惠兴大街街999号",
      "facility_type": "公共游泳(跳水)",
      "operator": "唐山九江体育中心",
      "build_year": 2012,
      "indicators": {
        "building_area": 29357.8,
        "site_area": 18907.2,
        "land_area": 41000.0,
        "core_area": 2882.68,
        "core_free_area": 7265.0,
        "outdoor_area": 11642.2,
        "outdoor_free_area": 11642.2,
        "seats": 1500,
        "core_courts": 2,
        "outdoor_courts": 1,
        "has_outdoor_fitness": false,
        "daily_visitors": 56
      },
      "subsidy_status": "2025年享受补助",
      "image_url": "https://js365.org.cn/oss/js365/upload/2021/07/20/3135ec94-f61d-497e-adc0-9abfcd91ef7d.jpg",
      "facilities": "",
      "projects": "",
      "remarks": ""
    },
    {
      "id": 78,
      "name": "衡水市体育馆",
      "location": {
        "province": "河北省",
        "city": "衡水市",
        "district": "-衡水市",
        "full_address": "河北省-衡水市"
      },
      "sports_types": [],
      "description": "地址：河北省衡水市桃城区河西街道昌明街518号",
      "facility_type": "体育馆",
      "operator": "衡水市体育馆",
      "build_year": 1999,
      "indicators": {
        "building_area": 95000.0,
        "site_area": 12500.0,
        "land_area": 18000.0,
        "core_area": 1500.0,
        "core_free_area": 1500.0,
        "outdoor_area": 11000.0,
        "outdoor_free_area": 11000.0,
        "seats": 3600,
        "core_courts": 1,
        "outdoor_courts": 6,
        "has_outdoor_fitness": false,
        "daily_visitors": 55
      },
      "subsidy_status": "2025年享受补助",
      "image_url": "https://js365.org.cn/oss/js365/upload/2021/10/08/9791ad1c-90a7-44d1-b6b3-16c7a5b2f794.jpg",
      "facilities": "",
      "projects": "",
      "remarks": ""
    },
    {
      "id": 79,
      "name": "张家口市宣化区滑冰馆",
      "location": {
        "province": "河北省",
        "city": "张家口市",
        "district": "-张家口市",
        "full_address": "河北省-张家口市"
      },
      "sports_types": [],
      "description": "地址：河北省张家口市宣化区柳川河东路街道柳川街01号",
      "facility_type": "体育馆",
      "operator": "张家口健奥文化体育发展有限公司",
      "build_year": 2020,
      "indicators": {
        "building_area": 1964.0,
        "site_area": 1964.0,
        "land_area": 2200.0,
        "core_area": 1677.95,
        "core_free_area": 1677.95,
        "outdoor_area": 286.05,
        "outdoor_free_area": 286.05,
        "seats": 180,
        "core_courts": 3,
        "outdoor_courts": 3,
        "has_outdoor_fitness": false,
        "daily_visitors": 55
      },
      "subsidy_status": "2025年享受补助",
      "image_url": "https://js365.org.cn/oss/js365/upload/2021/10/13/45b3ef10-4f04-47b1-9663-780efaddb05e.jpg",
      "facilities": "",
      "projects": "",
      "remarks": ""
    },
    {
      "id": 80,
      "name": "衡水市武邑县体育馆",
      "location": {
        "province": "河北省",
        "city": "衡水市",
        "district": "-衡水市",
        "full_address": "河北省-衡水市"
      },
      "sports_types": [],
      "description": "地址：河北省衡水市武邑县武邑镇街道宏达路街352号",
      "facility_type": "体育馆",
      "operator": "河北武邑中学",
      "build_year": 2020,
      "indicators": {
        "building_area": 2100.0,
        "site_area": 2500.0,
        "land_area": 2500.0,
        "core_area": 1500.0,
        "core_free_area": 1500.0,
        "outdoor_area": 1000.0,
        "outdoor_free_area": 1000.0,
        "seats": 800,
        "core_courts": 5,
        "outdoor_courts": 2,
        "has_outdoor_fitness": false,
        "daily_visitors": 53
      },
      "subsidy_status": "2025年享受补助",
      "image_url": "https://js365.org.cn/oss/js365/upload/2021/07/27/6aac0a88-492d-46f1-a74a-67330c5537ff.jpg",
      "facilities": "",
      "projects": "",
      "remarks": ""
    },
    {
      "id": 81,
      "name": "高新区气膜体育馆",
      "location": {
        "province": "河北省",
        "city": "石家庄市",
        "district": "-石家庄市",
        "full_address": "河北省-石家庄市"
      },
      "sports_types": [],
      "description": "地址：河北省石家庄市石家庄高新技术产业开发区长江街道闽江道街1号",
      "facility_type": "体育馆",
      "operator": "高新区文化服务中心",
      "build_year": 2020,
      "indicators": {
        "building_area": 2100.0,
        "site_area": 1800.0,
        "land_area": 3000.0,
        "core_area": 1800.0,
        "core_free_area": 1800.0,
        "outdoor_area": 0.0,
        "outdoor_free_area": 0.0,
        "seats": 20,
        "core_courts": 2,
        "outdoor_courts": 0,
        "has_outdoor_fitness": false,
        "daily_visitors": 53
      },
      "subsidy_status": "2025年享受补助",
      "image_url": "https://www.js365.org.cn/oss/js365/upload/20230717/b0ccdc0d860e4396985a3025b342d0f6.jpg",
      "facilities": "",
      "projects": "",
      "remarks": ""
    },
    {
      "id": 82,
      "name": "武安市文化体育中心游泳馆",
      "location": {
        "province": "河北省",
        "city": "邯郸市",
        "district": "-邯郸市",
        "full_address": "河北省-邯郸市"
      },
      "sports_types": [],
      "description": "地址：河北省邯郸市武安市新华街道体育路交叉处东南角号",
      "facility_type": "公共游泳(跳水)",
      "operator": "河北中茂卓汇文化传播有限公司",
      "build_year": 2012,
      "indicators": {
        "building_area": 10000.0,
        "site_area": 11000.0,
        "land_area": 11000.0,
        "core_area": 4500.0,
        "core_free_area": 4500.0,
        "outdoor_area": 5500.0,
        "outdoor_free_area": 1000.0,
        "seats": 1250,
        "core_courts": 2,
        "outdoor_courts": 0,
        "has_outdoor_fitness": false,
        "daily_visitors": 50
      },
      "subsidy_status": "2025年享受补助",
      "image_url": "https://js365.org.cn/oss/js365/upload/2021/07/20/a3e63659-b7e1-4975-998b-b265ce984a8f.JPG",
      "facilities": "",
      "projects": "",
      "remarks": ""
    },
    {
      "id": 83,
      "name": "石家庄市鹿泉区篮球馆",
      "location": {
        "province": "河北省",
        "city": "石家庄市",
        "district": "-石家庄市",
        "full_address": "河北省-石家庄市"
      },
      "sports_types": [],
      "description": "地址：河北省石家庄市鹿泉区获鹿镇乡乡镇向阳大街街213号",
      "facility_type": "体育馆",
      "operator": "石家庄市鹿泉区体育场",
      "build_year": 1995,
      "indicators": {
        "building_area": 1030.0,
        "site_area": 840.0,
        "land_area": 29683.22,
        "core_area": 767.92,
        "core_free_area": 767.92,
        "outdoor_area": 264.0,
        "outdoor_free_area": 264.0,
        "seats": 80,
        "core_courts": 1,
        "outdoor_courts": 0,
        "has_outdoor_fitness": false,
        "daily_visitors": 50
      },
      "subsidy_status": "2025年享受补助",
      "image_url": "https://js365.org.cn/oss/js365/upload/2021/04/30/e25f5112-02e2-4f62-a3f0-4a7914a528c7.jpg",
      "facilities": "",
      "projects": "",
      "remarks": ""
    },
    {
      "id": 84,
      "name": "邢台市任泽区全民健身中心",
      "location": {
        "province": "河北省",
        "city": "邢台市",
        "district": "-邢台市",
        "full_address": "河北省-邢台市"
      },
      "sports_types": [],
      "description": "地址：河北省邢台市任县任城镇乡镇人民大街街387号",
      "facility_type": "健身中心",
      "operator": "任泽区文化广电体育和旅游局",
      "build_year": 2017,
      "indicators": {
        "building_area": 4702.0,
        "site_area": 1800.0,
        "land_area": 2760.73,
        "core_area": 1500.0,
        "core_free_area": 1500.0,
        "outdoor_area": 300.0,
        "outdoor_free_area": 300.0,
        "seats": 0,
        "core_courts": 1,
        "outdoor_courts": 1,
        "has_outdoor_fitness": false,
        "daily_visitors": 50
      },
      "subsidy_status": "2025年享受补助",
      "image_url": "https://js365.org.cn/oss/js365/upload/2021/06/09/dccafb38-d6ce-4226-9a64-9acd41f78e6b.png",
      "facilities": "",
      "projects": "",
      "remarks": ""
    },
    {
      "id": 85,
      "name": "清苑区体育馆",
      "location": {
        "province": "河北省",
        "city": "保定市",
        "district": "-保定市",
        "full_address": "河北省-保定市"
      },
      "sports_types": [],
      "description": "地址：河北省保定市清苑区清苑镇街道长城南大街街清苑区体育馆号",
      "facility_type": "体育馆",
      "operator": "清苑区集结号健身休闲俱乐部",
      "build_year": 2022,
      "indicators": {
        "building_area": 5986.0,
        "site_area": 5500.0,
        "land_area": 4500.0,
        "core_area": 5000.0,
        "core_free_area": 5000.0,
        "outdoor_area": 500.0,
        "outdoor_free_area": 500.0,
        "seats": 350,
        "core_courts": 4,
        "outdoor_courts": 1,
        "has_outdoor_fitness": false,
        "daily_visitors": 48
      },
      "subsidy_status": "2025年享受补助",
      "image_url": "https://www.js365.org.cn/oss/js365/upload/20230627/6056cae381bd46d7884a370e26e82b39.jpg",
      "facilities": "",
      "projects": "",
      "remarks": ""
    },
    {
      "id": 86,
      "name": "辛集市体育馆",
      "location": {
        "province": "河北省",
        "city": "",
        "district": "",
        "full_address": "河北省-滑雪"
      },
      "sports_types": [],
      "description": "地址：河北省辛集市辛集市区辛集镇乡镇育红街街79号",
      "facility_type": "体育馆",
      "operator": "河北省石家庄市体育学校辛集分校",
      "build_year": 2002,
      "indicators": {
        "building_area": 2700.0,
        "site_area": 2000.0,
        "land_area": 3200.0,
        "core_area": 1000.0,
        "core_free_area": 1000.0,
        "outdoor_area": 1000.0,
        "outdoor_free_area": 1000.0,
        "seats": 2180,
        "core_courts": 1,
        "outdoor_courts": 1,
        "has_outdoor_fitness": false,
        "daily_visitors": 47
      },
      "subsidy_status": "2025年享受补助",
      "image_url": "https://js365.org.cn/oss/js365/upload/2021/04/29/47fe1dfc-8923-450e-b584-ab4c7b4cf2f3.jpg",
      "facilities": "",
      "projects": "",
      "remarks": ""
    },
    {
      "id": 87,
      "name": "张北县全民健身中心",
      "location": {
        "province": "河北省",
        "city": "张家口市",
        "district": "-张家口市",
        "full_address": "河北省-张家口市"
      },
      "sports_types": [],
      "description": "地址：河北省张家口市张北县花园街道中都大街街三中西侧8号",
      "facility_type": "健身中心",
      "operator": "张北县文化广电旅游和体育局",
      "build_year": 2012,
      "indicators": {
        "building_area": 2076.0,
        "site_area": 2700.0,
        "land_area": 3676.0,
        "core_area": 1600.0,
        "core_free_area": 1600.0,
        "outdoor_area": 1100.0,
        "outdoor_free_area": 1100.0,
        "seats": 0,
        "core_courts": 4,
        "outdoor_courts": 1,
        "has_outdoor_fitness": false,
        "daily_visitors": 46
      },
      "subsidy_status": "2025年享受补助",
      "image_url": "https://js365.org.cn/oss/js365/upload/2021/07/20/d5653f6e-0671-4d56-a1d7-fc576652830a.JPG",
      "facilities": "",
      "projects": "",
      "remarks": ""
    },
    {
      "id": 88,
      "name": "承德市奥林匹克体育中心体育馆",
      "location": {
        "province": "河北省",
        "city": "承德市",
        "district": "-承德市",
        "full_address": "河北省-承德市"
      },
      "sports_types": [],
      "description": "地址：河北省承德市双桥区冯营子乡镇学院街1号",
      "facility_type": "体育馆",
      "operator": "承德市奥林匹克体育中心",
      "build_year": 2011,
      "indicators": {
        "building_area": 17500.0,
        "site_area": 21600.0,
        "land_area": 38000.0,
        "core_area": 3600.0,
        "core_free_area": 3600.0,
        "outdoor_area": 18000.0,
        "outdoor_free_area": 18000.0,
        "seats": 6000,
        "core_courts": 2,
        "outdoor_courts": 2,
        "has_outdoor_fitness": false,
        "daily_visitors": 42
      },
      "subsidy_status": "2025年享受补助",
      "image_url": "https://js365.org.cn/oss/js365/upload/2021/07/23/5c33a232-6748-4468-b6b4-d11ae73d69a0.png",
      "facilities": "",
      "projects": "",
      "remarks": ""
    },
    {
      "id": 89,
      "name": "大城县体育场",
      "location": {
        "province": "河北省",
        "city": "廊坊市",
        "district": "-廊坊市",
        "full_address": "河北省-廊坊市"
      },
      "sports_types": [],
      "description": "地址：河北省廊坊市大城县平舒镇乡镇廊沧路青少年校外活动中心门牌",
      "facility_type": "体育场",
      "operator": "大城县教育和体育局",
      "build_year": 2016,
      "indicators": {
        "building_area": 4500.0,
        "site_area": 28000.0,
        "land_area": 32000.0,
        "core_area": 18000.0,
        "core_free_area": 18000.0,
        "outdoor_area": 10000.0,
        "outdoor_free_area": 10000.0,
        "seats": 1000,
        "core_courts": 1,
        "outdoor_courts": 1,
        "has_outdoor_fitness": false,
        "daily_visitors": 41
      },
      "subsidy_status": "2025年享受补助",
      "image_url": "https://js365.org.cn/oss/js365/upload/2021/05/06/6fb00c98-2f95-46f1-af34-3d9bc07eaa2a.jpg",
      "facilities": "",
      "projects": "",
      "remarks": ""
    },
    {
      "id": 90,
      "name": "石家庄滑冰馆",
      "location": {
        "province": "河北省",
        "city": "石家庄市",
        "district": "-石家庄市",
        "full_address": "河北省-石家庄市"
      },
      "sports_types": [],
      "description": "地址：河北省石家庄市长安区育才街道中山东路350号",
      "facility_type": "体育馆",
      "operator": "石家庄裕彤体育产业发展有限责任公司",
      "build_year": 2020,
      "indicators": {
        "building_area": 3264.0,
        "site_area": 3264.0,
        "land_area": 5264.0,
        "core_area": 1830.0,
        "core_free_area": 1830.0,
        "outdoor_area": 1434.0,
        "outdoor_free_area": 1434.0,
        "seats": 371,
        "core_courts": 1,
        "outdoor_courts": 1,
        "has_outdoor_fitness": false,
        "daily_visitors": 39
      },
      "subsidy_status": "2025年享受补助",
      "image_url": "https://js365.org.cn/oss/js365/js365/upload/20220621/e76e1aa77d184d6bbaa643c4d32b2192.jpg",
      "facilities": "",
      "projects": "",
      "remarks": ""
    },
    {
      "id": 91,
      "name": "武安市文化体育中心体育场",
      "location": {
        "province": "河北省",
        "city": "邯郸市",
        "district": "-邯郸市",
        "full_address": "河北省-邯郸市"
      },
      "sports_types": [],
      "description": "地址：河北省邯郸市武安市新华街道体育路交叉口东南角号",
      "facility_type": "体育场",
      "operator": "河北中茂卓汇文化传播有限公司",
      "build_year": 2012,
      "indicators": {
        "building_area": 18000.0,
        "site_area": 18000.0,
        "land_area": 37000.0,
        "core_area": 15000.0,
        "core_free_area": 15000.0,
        "outdoor_area": 8000.0,
        "outdoor_free_area": 18000.0,
        "seats": 17000,
        "core_courts": 5,
        "outdoor_courts": 4,
        "has_outdoor_fitness": false,
        "daily_visitors": 34
      },
      "subsidy_status": "2025年享受补助",
      "image_url": "https://js365.org.cn/oss/js365/upload/2021/07/20/9613ac79-a44a-4c0d-8544-c19618ee2ffc.jpg",
      "facilities": "",
      "projects": "",
      "remarks": ""
    },
    {
      "id": 92,
      "name": "唐县全民健身中心",
      "location": {
        "province": "河北省",
        "city": "保定市",
        "district": "-保定市",
        "full_address": "河北省-保定市"
      },
      "sports_types": [],
      "description": "地址：河北省保定市唐县仁厚镇乡镇唐王路18号",
      "facility_type": "健身中心",
      "operator": "唐县教育和体育局",
      "build_year": 2005,
      "indicators": {
        "building_area": 6000.0,
        "site_area": 4700.0,
        "land_area": 4000.0,
        "core_area": 3500.0,
        "core_free_area": 3500.0,
        "outdoor_area": 1200.0,
        "outdoor_free_area": 1200.0,
        "seats": 0,
        "core_courts": 9,
        "outdoor_courts": 1,
        "has_outdoor_fitness": false,
        "daily_visitors": 32
      },
      "subsidy_status": "2025年享受补助",
      "image_url": "https://js365.org.cn/oss/js365/upload/2021/05/12/a8f8cabf-371a-41bc-8998-950954621f8e.jpg",
      "facilities": "",
      "projects": "",
      "remarks": ""
    },
    {
      "id": 93,
      "name": "廊坊市滑冰馆",
      "location": {
        "province": "河北省",
        "city": "廊坊市",
        "district": "-廊坊市",
        "full_address": "河北省-廊坊市"
      },
      "sports_types": [],
      "description": "地址：河北省廊坊市广阳区新源道街道和平路189号",
      "facility_type": "",
      "operator": "廊坊市体育馆",
      "build_year": 2020,
      "indicators": {
        "building_area": 3858.68,
        "site_area": 4200.0,
        "land_area": 3406.27,
        "core_area": 1800.0,
        "core_free_area": 1800.0,
        "outdoor_area": 2400.0,
        "outdoor_free_area": 2400.0,
        "seats": 404,
        "core_courts": 1,
        "outdoor_courts": 1,
        "has_outdoor_fitness": false,
        "daily_visitors": 32
      },
      "subsidy_status": "2025年享受补助",
      "image_url": "https://js365.org.cn/oss/js365/upload/2021/05/07/ed6a6774-ba3c-460b-9b2b-59f6c3477a99.jpg",
      "facilities": "",
      "projects": "",
      "remarks": ""
    },
    {
      "id": 94,
      "name": "衡水市冀州区全民健身中心",
      "location": {
        "province": "河北省",
        "city": "衡水市",
        "district": "-衡水市",
        "full_address": "河北省-衡水市"
      },
      "sports_types": [],
      "description": "地址：河北省衡水市冀州区冀州镇街道冀新路36号",
      "facility_type": "健身中心",
      "operator": "衡水市冀州区教育局体育事业中心",
      "build_year": 1995,
      "indicators": {
        "building_area": 8317.0,
        "site_area": 8317.0,
        "land_area": 8317.0,
        "core_area": 2000.0,
        "core_free_area": 1610.0,
        "outdoor_area": 1728.0,
        "outdoor_free_area": 7528.0,
        "seats": 0,
        "core_courts": 1,
        "outdoor_courts": 1,
        "has_outdoor_fitness": false,
        "daily_visitors": 29
      },
      "subsidy_status": "2025年享受补助",
      "image_url": "https://js365.org.cn/oss/js365/upload/2021/05/13/85fb6adf-ce4d-455c-b266-ea00990f8417.jpg",
      "facilities": "",
      "projects": "",
      "remarks": ""
    },
    {
      "id": 95,
      "name": "巨鹿县全民健身中心",
      "location": {
        "province": "河北省",
        "city": "邢台市",
        "district": "-邢台市",
        "full_address": "河北省-邢台市"
      },
      "sports_types": [],
      "description": "地址：河北省邢台市巨鹿县巨鹿镇乡镇风清东路路2号",
      "facility_type": "健身中心",
      "operator": "巨鹿县全民健身中心",
      "build_year": 2011,
      "indicators": {
        "building_area": 1400.0,
        "site_area": 1050.0,
        "land_area": 1200.0,
        "core_area": 1050.0,
        "core_free_area": 1050.0,
        "outdoor_area": 0.0,
        "outdoor_free_area": 0.0,
        "seats": 0,
        "core_courts": 3,
        "outdoor_courts": 0,
        "has_outdoor_fitness": false,
        "daily_visitors": 26
      },
      "subsidy_status": "2025年享受补助",
      "image_url": "https://js365.org.cn/oss/js365/upload/2021/09/29/71b53683-5049-42a0-9269-a9d8f06d2323.jpg",
      "facilities": "",
      "projects": "",
      "remarks": ""
    },
    {
      "id": 96,
      "name": "赞皇县体育馆",
      "location": {
        "province": "河北省",
        "city": "石家庄市",
        "district": "-石家庄市",
        "full_address": "河北省-石家庄市滑冰"
      },
      "sports_types": [],
      "description": "地址：河北省石家庄市赞皇县西龙门乡镇布古庄村二中南邻null号",
      "facility_type": "体育馆",
      "operator": "赞皇县文化广电体育和旅游局",
      "build_year": 2016,
      "indicators": {
        "building_area": 3000.0,
        "site_area": 8000.0,
        "land_area": 11000.0,
        "core_area": 1200.0,
        "core_free_area": 1200.0,
        "outdoor_area": 6800.0,
        "outdoor_free_area": 6800.0,
        "seats": 1000,
        "core_courts": 2,
        "outdoor_courts": 2,
        "has_outdoor_fitness": false,
        "daily_visitors": 25
      },
      "subsidy_status": "2025年享受补助",
      "image_url": "https://js365.org.cn/oss/js365/upload/2021/05/13/85baf517-0e5d-41ad-aaa2-8ad4a87cde17.jpg",
      "facilities": "",
      "projects": "",
      "remarks": ""
    },
    {
      "id": 97,
      "name": "曲周县凤凰艺体中心",
      "location": {
        "province": "河北省",
        "city": "邯郸市",
        "district": "-邯郸市",
        "full_address": "河北省-邯郸市"
      },
      "sports_types": [],
      "description": "地址：河北省邯郸市曲周县凤凰新区乡镇凤凰街街1号",
      "facility_type": "健身中心",
      "operator": "曲周县教育体育局",
      "build_year": 2023,
      "indicators": {
        "building_area": 15933.0,
        "site_area": 133933.0,
        "land_area": 194000.0,
        "core_area": 103933.0,
        "core_free_area": 103933.0,
        "outdoor_area": 30000.0,
        "outdoor_free_area": 30000.0,
        "seats": 0,
        "core_courts": 3,
        "outdoor_courts": 3,
        "has_outdoor_fitness": false,
        "daily_visitors": 25
      },
      "subsidy_status": "2025年享受补助",
      "image_url": "https://www.js365.org.cn/oss/js365/upload/20230629/d798140ce12343b09073ff88d78da41a.png",
      "facilities": "",
      "projects": "",
      "remarks": ""
    },
    {
      "id": 98,
      "name": "唐山市体育中心游泳馆",
      "location": {
        "province": "河北省",
        "city": "唐山市",
        "district": "-唐山市",
        "full_address": "河北省-唐山市"
      },
      "sports_types": [],
      "description": "地址：河北省唐山市路北区文化路街道建设南路92号",
      "facility_type": "公共游泳(跳水)",
      "operator": "唐山市体育中心",
      "build_year": 2002,
      "indicators": {
        "building_area": 7582.7,
        "site_area": 3875.0,
        "land_area": 6880.0,
        "core_area": 1875.0,
        "core_free_area": 1875.0,
        "outdoor_area": 2000.0,
        "outdoor_free_area": 2000.0,
        "seats": 1500,
        "core_courts": 2,
        "outdoor_courts": 1,
        "has_outdoor_fitness": false,
        "daily_visitors": 24
      },
      "subsidy_status": "2025年享受补助",
      "image_url": "https://js365.org.cn/oss/js365/upload/2021/07/27/2156522d-1765-4997-806c-54777129f07e.jpg",
      "facilities": "",
      "projects": "",
      "remarks": ""
    },
    {
      "id": 99,
      "name": "大厂回族自治县气膜滑冰馆",
      "location": {
        "province": "河北省",
        "city": "廊坊市",
        "district": "-廊坊市",
        "full_address": "河北省-廊坊市"
      },
      "sports_types": [],
      "description": "地址：河北省廊坊市大厂回族自治县北辰街街道和平北路180号",
      "facility_type": "体育馆",
      "operator": "北京箭步体育发展有限公司",
      "build_year": 2020,
      "indicators": {
        "building_area": 1500.0,
        "site_area": 2632.0,
        "land_area": 2500.0,
        "core_area": 1132.0,
        "core_free_area": 500.0,
        "outdoor_area": 1500.0,
        "outdoor_free_area": 0.0,
        "seats": 200,
        "core_courts": 1,
        "outdoor_courts": 0,
        "has_outdoor_fitness": false,
        "daily_visitors": 21
      },
      "subsidy_status": "2025年享受补助",
      "image_url": "https://js365.org.cn/oss/js365/upload/2021/05/07/c60084fc-b6f1-4b77-bdb7-47c14bcd5549.png",
      "facilities": "",
      "projects": "",
      "remarks": ""
    },
    {
      "id": 100,
      "name": "承德县体育馆",
      "location": {
        "province": "河北省",
        "city": "承德市",
        "district": "-承德市",
        "full_address": "河北省-承德市"
      },
      "sports_types": [],
      "description": "地址：河北省承德市承德县下板城街道迎宾路1号",
      "facility_type": "健身中心",
      "operator": "承德县教育和体育局",
      "build_year": 2021,
      "indicators": {
        "building_area": 3800.0,
        "site_area": 14200.0,
        "land_area": 16500.0,
        "core_area": 3200.0,
        "core_free_area": 3200.0,
        "outdoor_area": 11000.0,
        "outdoor_free_area": 11000.0,
        "seats": 0,
        "core_courts": 5,
        "outdoor_courts": 1,
        "has_outdoor_fitness": false,
        "daily_visitors": 21
      },
      "subsidy_status": "2025年享受补助",
      "image_url": "https://js365.org.cn/oss/js365/js365/upload/20220624/86681026c4a74dc397111b1904818060.jpg",
      "facilities": "",
      "projects": "",
      "remarks": ""
    },
    {
      "id": 101,
      "name": "阜城县全民健身中心体育场",
      "location": {
        "province": "河北省",
        "city": "衡水市",
        "district": "-衡水市",
        "full_address": "河北省-衡水市"
      },
      "sports_types": [],
      "description": "地址：河北省衡水市阜城县阜城乡镇阜康路106号",
      "facility_type": "体育场",
      "operator": "秦皇岛帝秀物业服务有限公司",
      "build_year": 2021,
      "indicators": {
        "building_area": 13885.0,
        "site_area": 18000.0,
        "land_area": 36000.0,
        "core_area": 16000.0,
        "core_free_area": 16000.0,
        "outdoor_area": 2000.0,
        "outdoor_free_area": 2000.0,
        "seats": 9000,
        "core_courts": 2,
        "outdoor_courts": 3,
        "has_outdoor_fitness": false,
        "daily_visitors": 20
      },
      "subsidy_status": "2025年享受补助",
      "image_url": "https://js365.org.cn/oss/js365/upload/2021/05/09/c83223b3-5e20-4f39-b968-87038411d43a.jpg",
      "facilities": "",
      "projects": "",
      "remarks": ""
    },
    {
      "id": 102,
      "name": "安平县体育馆",
      "location": {
        "province": "河北省",
        "city": "衡水市",
        "district": "-衡水市",
        "full_address": "河北省-衡水市"
      },
      "sports_types": [],
      "description": "地址：河北省衡水市安平县安平镇乡镇英才街街6号",
      "facility_type": "体育馆",
      "operator": "安平县体育局",
      "build_year": 2013,
      "indicators": {
        "building_area": 9641.0,
        "site_area": 7600.0,
        "land_area": 16000.0,
        "core_area": 1000.0,
        "core_free_area": 1000.0,
        "outdoor_area": 6600.0,
        "outdoor_free_area": 300.0,
        "seats": 1416,
        "core_courts": 5,
        "outdoor_courts": 1,
        "has_outdoor_fitness": false,
        "daily_visitors": 19
      },
      "subsidy_status": "2025年享受补助",
      "image_url": "https://js365.org.cn/oss/js365/upload/2021/05/06/5af2a9d8-5d6b-40d7-951f-f818b0e63f42.jpg",
      "facilities": "",
      "projects": "",
      "remarks": ""
    },
    {
      "id": 103,
      "name": "献县体育馆",
      "location": {
        "province": "河北省",
        "city": "沧州市",
        "district": "-沧州市",
        "full_address": "河北省-沧州市"
      },
      "sports_types": [],
      "description": "地址：河北省沧州市献县106国道街道京开大道街7号",
      "facility_type": "体育馆",
      "operator": "献县教育体育局",
      "build_year": 2009,
      "indicators": {
        "building_area": 2193.89,
        "site_area": 1600.0,
        "land_area": 1997.67,
        "core_area": 1200.0,
        "core_free_area": 1200.0,
        "outdoor_area": 400.0,
        "outdoor_free_area": 0.0,
        "seats": 240,
        "core_courts": 3,
        "outdoor_courts": 0,
        "has_outdoor_fitness": false,
        "daily_visitors": 18
      },
      "subsidy_status": "2025年享受补助",
      "image_url": "https://js365.org.cn/oss/js365/upload/2021/05/14/fb7a6165-9abe-4e5a-ac15-d7d6a7ec3750.jpg",
      "facilities": "",
      "projects": "",
      "remarks": ""
    },
    {
      "id": 104,
      "name": "古冶区体育馆",
      "location": {
        "province": "河北省",
        "city": "唐山市",
        "district": "-唐山市",
        "full_address": "河北省-唐山市"
      },
      "sports_types": [],
      "description": "地址：河北省唐山市古冶区林西街道新林街88号",
      "facility_type": "体育馆",
      "operator": "古冶区文化广电和旅游局",
      "build_year": 1982,
      "indicators": {
        "building_area": 2000.0,
        "site_area": 1060.5,
        "land_area": 2000.0,
        "core_area": 1010.5,
        "core_free_area": 1010.5,
        "outdoor_area": 50.0,
        "outdoor_free_area": 0.0,
        "seats": 100,
        "core_courts": 4,
        "outdoor_courts": 0,
        "has_outdoor_fitness": false,
        "daily_visitors": 15
      },
      "subsidy_status": "2025年享受补助",
      "image_url": "https://js365.org.cn/oss/js365/upload/2021/06/04/3dc40578-3a67-4752-aaac-aa06f8a1a128.jpg",
      "facilities": "",
      "projects": "",
      "remarks": ""
    },
    {
      "id": 105,
      "name": "徐水区全民健身中心",
      "location": {
        "province": "河北省",
        "city": "保定市",
        "district": "-保定市",
        "full_address": "河北省-保定市"
      },
      "sports_types": [],
      "description": "地址：河北省保定市徐水区安肃镇乡镇振兴中路66号",
      "facility_type": "健身中心",
      "operator": "徐水区教育和体育局",
      "build_year": 1990,
      "indicators": {
        "building_area": 3000.0,
        "site_area": 5000.0,
        "land_area": 5000.0,
        "core_area": 2500.0,
        "core_free_area": 2500.0,
        "outdoor_area": 2500.0,
        "outdoor_free_area": 2500.0,
        "seats": 0,
        "core_courts": 3,
        "outdoor_courts": 4,
        "has_outdoor_fitness": false,
        "daily_visitors": 14
      },
      "subsidy_status": "2025年享受补助",
      "image_url": "https://js365.org.cn/oss/js365/upload/2021/05/17/72cd79d1-68de-4102-b8f2-833c43717dd7.jpg",
      "facilities": "",
      "projects": "",
      "remarks": ""
    },
    {
      "id": 106,
      "name": "唐山市丰南区体育馆",
      "location": {
        "province": "河北省",
        "city": "唐山市",
        "district": "-唐山市",
        "full_address": "河北省-唐山市"
      },
      "sports_types": [],
      "description": "地址：河北省唐山市丰南区胥各庄乡镇青年路64号",
      "facility_type": "体育馆",
      "operator": "唐山市丰南区体育馆",
      "build_year": 1992,
      "indicators": {
        "building_area": 7812.0,
        "site_area": 2550.0,
        "land_area": 15900.0,
        "core_area": 1600.0,
        "core_free_area": 1600.0,
        "outdoor_area": 950.0,
        "outdoor_free_area": 950.0,
        "seats": 2064,
        "core_courts": 4,
        "outdoor_courts": 1,
        "has_outdoor_fitness": false,
        "daily_visitors": 14
      },
      "subsidy_status": "2025年享受补助",
      "image_url": "https://js365.org.cn/oss/js365/upload/2021/04/30/5012c225-f8e8-4f5a-9e60-4df031eb241d.jpg",
      "facilities": "",
      "projects": "",
      "remarks": ""
    },
    {
      "id": 107,
      "name": "曹妃甸区滑冰馆",
      "location": {
        "province": "河北省",
        "city": "唐山市",
        "district": "-唐山市",
        "full_address": "河北省-唐山市"
      },
      "sports_types": [],
      "description": "地址：河北省唐山市曹妃甸区唐海镇乡乡镇新城大街街196号",
      "facility_type": "体育馆",
      "operator": "曹妃甸区滑冰馆",
      "build_year": 2020,
      "indicators": {
        "building_area": 1500.0,
        "site_area": 800.0,
        "land_area": 1500.0,
        "core_area": 1500.0,
        "core_free_area": 800.0,
        "outdoor_area": 0.0,
        "outdoor_free_area": 0.0,
        "seats": 0,
        "core_courts": 1,
        "outdoor_courts": 0,
        "has_outdoor_fitness": false,
        "daily_visitors": 13
      },
      "subsidy_status": "2025年享受补助",
      "image_url": "https://js365.org.cn/oss/js365/js365/upload/20220728/45576992481c42b8a56c5c1ede4042bc.jpg",
      "facilities": "",
      "projects": "",
      "remarks": ""
    },
    {
      "id": 108,
      "name": "保定市清苑区全民健身中心",
      "location": {
        "province": "河北省",
        "city": "保定市",
        "district": "-保定市",
        "full_address": "河北省-保定市"
      },
      "sports_types": [],
      "description": "地址：河北省保定市清苑区清苑街道清苑北街573号",
      "facility_type": "健身中心",
      "operator": "保定市清苑区青少年校外活动中心",
      "build_year": 2010,
      "indicators": {
        "building_area": 4500.0,
        "site_area": 2800.0,
        "land_area": 6642.0,
        "core_area": 1800.0,
        "core_free_area": 1800.0,
        "outdoor_area": 1000.0,
        "outdoor_free_area": 1000.0,
        "seats": 0,
        "core_courts": 4,
        "outdoor_courts": 1,
        "has_outdoor_fitness": false,
        "daily_visitors": 12
      },
      "subsidy_status": "2025年享受补助",
      "image_url": "https://js365.org.cn/oss/js365/js365/upload/20220725/623f5206315c495695571a24a4eb7c18.jpg",
      "facilities": "",
      "projects": "",
      "remarks": ""
    },
    {
      "id": 109,
      "name": "东光县滑冰馆",
      "location": {
        "province": "河北省",
        "city": "沧州市",
        "district": "-沧州市",
        "full_address": "河北省-沧州市"
      },
      "sports_types": [],
      "description": "地址：河北省沧州市东光县东光镇街道建设大街街无号",
      "facility_type": "",
      "operator": "东光县文体广电和旅游局",
      "build_year": 2020,
      "indicators": {
        "building_area": 1076.8,
        "site_area": 995.4,
        "land_area": 995.4,
        "core_area": 795.4,
        "core_free_area": 795.4,
        "outdoor_area": 200.0,
        "outdoor_free_area": 200.0,
        "seats": 0,
        "core_courts": 4,
        "outdoor_courts": 1,
        "has_outdoor_fitness": false,
        "daily_visitors": 11
      },
      "subsidy_status": "2025年享受补助",
      "image_url": "https://js365.org.cn/oss/js365/js365/upload/20220726/a6fbbf4752234b4bae8201152d902e17.jpg",
      "facilities": "",
      "projects": "",
      "remarks": ""
    },
    {
      "id": 110,
      "name": "石家庄市高邑县青少年体育训练中心",
      "location": {
        "province": "河北省",
        "city": "石家庄市",
        "district": "-石家庄市",
        "full_address": "河北省-石家庄市"
      },
      "sports_types": [],
      "description": "地址：河北省石家庄市高邑县高邑县街道侯家庄街太行路4号",
      "facility_type": "体育馆",
      "operator": "高邑县业余体育学校",
      "build_year": 2018,
      "indicators": {
        "building_area": 3000.0,
        "site_area": 7300.0,
        "land_area": 20000.0,
        "core_area": 2300.0,
        "core_free_area": 1200.0,
        "outdoor_area": 5000.0,
        "outdoor_free_area": 4000.0,
        "seats": 1000,
        "core_courts": 3,
        "outdoor_courts": 2,
        "has_outdoor_fitness": false,
        "daily_visitors": 7
      },
      "subsidy_status": "2025年享受补助",
      "image_url": "https://www.js365.org.cn/oss/js365/upload/20230629/0fc2c86dcd7840e18f05bd5f63621e7b.jpg",
      "facilities": "",
      "projects": "",
      "remarks": ""
    },
    {
      "id": 111,
      "name": "八极拳展演馆",
      "location": {
        "province": "河北省",
        "city": "沧州市",
        "district": "-沧州市",
        "full_address": "河北省-沧州市"
      },
      "sports_types": [],
      "description": "地址：河北省沧州市孟村回族自治县兴武大街道团结路8号",
      "facility_type": "体育馆",
      "operator": "孟村回族自治县文体广电和旅游局",
      "build_year": 2020,
      "indicators": {
        "building_area": 5056.0,
        "site_area": 5400.0,
        "land_area": 9990.0,
        "core_area": 2800.0,
        "core_free_area": 2800.0,
        "outdoor_area": 2600.0,
        "outdoor_free_area": 2000.0,
        "seats": 1648,
        "core_courts": 4,
        "outdoor_courts": 4,
        "has_outdoor_fitness": false,
        "daily_visitors": 6
      },
      "subsidy_status": "2025年享受补助",
      "image_url": "https://js365.org.cn/oss/js365/upload/2021/04/30/9269d7b8-5744-4c09-9792-641cdbcd17ad.jpg",
      "facilities": "",
      "projects": "",
      "remarks": ""
    },
    {
      "id": 112,
      "name": "卢龙县体育场",
      "location": {
        "province": "河北省",
        "city": "秦皇岛市",
        "district": "-秦皇岛市",
        "full_address": "河北省-秦皇岛市"
      },
      "sports_types": [],
      "description": "地址：河北省秦皇岛市卢龙县卢龙镇乡镇永平大街街116号",
      "facility_type": "体育场",
      "operator": "卢龙县教育和体育局",
      "build_year": 2013,
      "indicators": {
        "building_area": 19668.0,
        "site_area": 16918.0,
        "land_area": 61938.0,
        "core_area": 16918.0,
        "core_free_area": 16918.0,
        "outdoor_area": 5706.0,
        "outdoor_free_area": 5706.0,
        "seats": 5616,
        "core_courts": 2,
        "outdoor_courts": 6,
        "has_outdoor_fitness": false,
        "daily_visitors": 4
      },
      "subsidy_status": "2025年享受补助",
      "image_url": "https://js365.org.cn/oss/js365/upload/2021/07/26/a2b98ae4-c18d-473c-8e2e-4e1bffe8c9d6.jpg",
      "facilities": "",
      "projects": "",
      "remarks": ""
    },
    {
      "id": 113,
      "name": "鹿泉区全民健身中心",
      "location": {
        "province": "河北省",
        "city": "石家庄市",
        "district": "-石家庄市",
        "full_address": "河北省-石家庄市"
      },
      "sports_types": [],
      "description": "地址：河北省石家庄市鹿泉区获鹿镇街道北海山街0号",
      "facility_type": "健身中心",
      "operator": "鹿泉区文化广电体育和旅游局",
      "build_year": 2023,
      "indicators": {
        "building_area": 8000.0,
        "site_area": 17649.0,
        "land_area": 39327.0,
        "core_area": 16649.0,
        "core_free_area": 3000.0,
        "outdoor_area": 1000.0,
        "outdoor_free_area": 14649.0,
        "seats": 0,
        "core_courts": 4,
        "outdoor_courts": 11,
        "has_outdoor_fitness": false,
        "daily_visitors": 4
      },
      "subsidy_status": "2025年享受补助",
      "image_url": "https://www.js365.org.cn/oss/js365/upload/20230616/b6fe6908054f44b6b9164fd3b011c69d.jpg",
      "facilities": "",
      "projects": "",
      "remarks": ""
    },
    {
      "id": 114,
      "name": "曹妃甸冀东体育馆",
      "location": {
        "province": "河北省",
        "city": "唐山市",
        "district": "-唐山市",
        "full_address": "河北省-唐山市"
      },
      "sports_types": [],
      "description": "地址：河北省秦皇岛市卢龙县卢龙镇乡镇永平大街街116号",
      "facility_type": "体育场",
      "operator": "卢龙县教育和体育局",
      "build_year": 2013,
      "indicators": {
        "building_area": 19668.0,
        "site_area": 16918.0,
        "land_area": 61938.0,
        "core_area": 16918.0,
        "core_free_area": 16918.0,
        "outdoor_area": 5706.0,
        "outdoor_free_area": 5706.0,
        "seats": 5616,
        "core_courts": 2,
        "outdoor_courts": 6,
        "has_outdoor_fitness": false,
        "daily_visitors": 4
      },
      "subsidy_status": "2025年享受补助",
      "image_url": "https://www.js365.org.cn/oss/js365/upload/20230625/9c89d990839a4466b4d6c2c1fc074763.jpg",
      "facilities": "",
      "projects": "",
      "remarks": ""
    },
    {
      "id": 115,
      "name": "行唐滑冰馆",
      "location": {
        "province": "河北省",
        "city": "石家庄市",
        "district": "-石家庄市",
        "full_address": "河北省-石家庄市"
      },
      "sports_types": [],
      "description": "地址：河北省石家庄市行唐县只里乡街道白庙村街颍畔商街4号楼三楼号",
      "facility_type": "",
      "operator": "石家庄隆邑体育发展有限公司",
      "build_year": 2023,
      "indicators": {
        "building_area": 865.0,
        "site_area": 500.0,
        "land_area": 865.0,
        "core_area": 300.0,
        "core_free_area": 300.0,
        "outdoor_area": 0.0,
        "outdoor_free_area": 0.0,
        "seats": 0,
        "core_courts": 0,
        "outdoor_courts": 0,
        "has_outdoor_fitness": false,
        "daily_visitors": 4
      },
      "subsidy_status": "2025年享受补助",
      "image_url": "https://www.js365.org.cn/oss/js365/upload/20231013/4aa31bcbbb834e9c9515a20dfcc71a59.jpg",
      "facilities": "",
      "projects": "",
      "remarks": ""
    },
    {
      "id": 116,
      "name": "辛集市滑冰馆",
      "location": {
        "province": "河北省",
        "city": "石家庄市",
        "district": "-石家庄市",
        "full_address": "河北省-石家庄市"
      },
      "sports_types": [],
      "description": "地址：河北省辛集市辛集市区辛集镇乡镇方碑大街街0号",
      "facility_type": "体育馆",
      "operator": "尚清(上海)体育文化发展有限公司",
      "build_year": 2020,
      "indicators": {
        "building_area": 6619.57,
        "site_area": 4768.05,
        "land_area": 12913.0,
        "core_area": 1830.0,
        "core_free_area": 1830.0,
        "outdoor_area": 2938.05,
        "outdoor_free_area": 2938.05,
        "seats": 960,
        "core_courts": 1,
        "outdoor_courts": 1,
        "has_outdoor_fitness": false,
        "daily_visitors": 2
      },
      "subsidy_status": "2025年享受补助",
      "image_url": "https://js365.org.cn/oss/js365/upload/2021/04/29/555c76c8-cdec-49f4-bd0a-a8b1d7de1bb2.jpg",
      "facilities": "",
      "projects": "",
      "remarks": ""
    },
    {
      "id": 117,
      "name": "固安县滑冰馆",
      "location": {
        "province": "河北省",
        "city": "廊坊市",
        "district": "-廊坊市",
        "full_address": "河北省-廊坊市"
      },
      "sports_types": [],
      "description": "地址：河北省廊坊市固安县正兴街道文博馆街1号",
      "facility_type": "体育馆",
      "operator": "吉林省魁曦宇体育发展有限公司",
      "build_year": 2021,
      "indicators": {
        "building_area": 13141.21,
        "site_area": 10008.04,
        "land_area": 11733.33,
        "core_area": 1830.0,
        "core_free_area": 1830.0,
        "outdoor_area": 8178.04,
        "outdoor_free_area": 8178.04,
        "seats": 460,
        "core_courts": 1,
        "outdoor_courts": 1,
        "has_outdoor_fitness": false,
        "daily_visitors": 2
      },
      "subsidy_status": "2025年享受补助",
      "image_url": "https://js365.org.cn/oss/js365/upload/2021/07/23/a50a807c-70c0-48d5-95c0-71cf9f57835a.jpg",
      "facilities": "",
      "projects": "",
      "remarks": ""
    },
    {
      "id": 118,
      "name": "青龙满族自治县全民健身中心",
      "location": {
        "province": "河北省",
        "city": "秦皇岛市",
        "district": "-秦皇岛市",
        "full_address": "河北省-秦皇岛市"
      },
      "sports_types": [],
      "description": "地址：河北省秦皇岛市青龙满族自治县青龙镇乡镇土坎子村12号",
      "facility_type": "健身中心",
      "operator": "青龙满族自治县教育和体育局",
      "build_year": 2009,
      "indicators": {
        "building_area": 1902.0,
        "site_area": 1902.0,
        "land_area": 951.0,
        "core_area": 1902.0,
        "core_free_area": 1902.0,
        "outdoor_area": 100.0,
        "outdoor_free_area": 100.0,
        "seats": 0,
        "core_courts": 2,
        "outdoor_courts": 1,
        "has_outdoor_fitness": false,
        "daily_visitors": 2
      },
      "subsidy_status": "2025年享受补助",
      "image_url": "https://js365.org.cn/oss/js365/js365/upload/20220728/63fd9ad392864629b412ac74c4817343.jpg",
      "facilities": "",
      "projects": "",
      "remarks": ""
    },
    {
      "id": 119,
      "name": "隆尧县全民健身中心",
      "location": {
        "province": "河北省",
        "city": "邢台市",
        "district": "-邢台市",
        "full_address": "河北省-邢台市"
      },
      "sports_types": [],
      "description": "地址：河北省邢台市隆尧县隆尧镇街道新华路2号",
      "facility_type": "健身中心",
      "operator": "隆尧县文化广电体育和旅游局",
      "build_year": 2019,
      "indicators": {
        "building_area": 2203.0,
        "site_area": 13000.0,
        "land_area": 13000.0,
        "core_area": 1800.0,
        "core_free_area": 1800.0,
        "outdoor_area": 11200.0,
        "outdoor_free_area": 11200.0,
        "seats": 0,
        "core_courts": 4,
        "outdoor_courts": 2,
        "has_outdoor_fitness": false,
        "daily_visitors": 1
      },
      "subsidy_status": "2025年享受补助",
      "image_url": "https://js365.org.cn/oss/js365/upload/2021/06/08/4af59fbb-f8a8-479a-8bee-0b1d2fde783d.jpg",
      "facilities": "",
      "projects": "",
      "remarks": ""
    },
    {
      "id": 120,
      "name": "临漳县体育中心全民健身中心",
      "location": {
        "province": "河北省",
        "city": "邯郸市",
        "district": "-邯郸市",
        "full_address": "河北省-邯郸市"
      },
      "sports_types": [],
      "description": "地址：河北省邯郸市临漳县临漳镇街道金凤南大街街36号",
      "facility_type": "健身中心",
      "operator": "临漳县体育总会",
      "build_year": 2012,
      "indicators": {
        "building_area": 19000.0,
        "site_area": 19000.0,
        "land_area": 19333.0,
        "core_area": 3000.0,
        "core_free_area": 3000.0,
        "outdoor_area": 16000.0,
        "outdoor_free_area": 16000.0,
        "seats": 0,
        "core_courts": 7,
        "outdoor_courts": 2,
        "has_outdoor_fitness": false,
        "daily_visitors": 1
      },
      "subsidy_status": "2025年享受补助",
      "image_url": "https://js365.org.cn/oss/js365/upload/2021/05/06/99d8d34d-7782-4d66-9858-a4c0d7ed24a9.jpg",
      "facilities": "",
      "projects": "",
      "remarks": ""
    },
    {
      "id": 121,
      "name": "霸州市乒乓球馆",
      "location": {
        "province": "河北省",
        "city": "廊坊市",
        "district": "-廊坊市",
        "full_address": "河北省-廊坊市"
      },
      "sports_types": [],
      "description": "地址：河北省廊坊市霸州市开发区街道益津北路49-1号",
      "facility_type": "体育馆",
      "operator": "霸州市教育和体育局",
      "build_year": 2009,
      "indicators": {
        "building_area": 3500.0,
        "site_area": 8430.0,
        "land_area": 10706.0,
        "core_area": 1224.0,
        "core_free_area": 1224.0,
        "outdoor_area": 7206.0,
        "outdoor_free_area": 7206.0,
        "seats": 1500,
        "core_courts": 5,
        "outdoor_courts": 1,
        "has_outdoor_fitness": false,
        "daily_visitors": 0
      },
      "subsidy_status": "2025年享受补助",
      "image_url": "https://js365.org.cn/oss/js365/upload/2021/10/15/63883f75-ee19-484b-b43f-878f6eb9c1ea.jpg",
      "facilities": "",
      "projects": "",
      "remarks": ""
    },
    {
      "id": 122,
      "name": "泊头市体育馆",
      "location": {
        "province": "河北省",
        "city": "沧州市",
        "district": "-沧州市",
        "full_address": "河北省-沧州市"
      },
      "sports_types": [],
      "description": "地址：河北省沧州市泊头市解放街道裕华西路89号",
      "facility_type": "体育馆",
      "operator": "海润物业",
      "build_year": 1991,
      "indicators": {
        "building_area": 5400.0,
        "site_area": 2765.0,
        "land_area": 6000.0,
        "core_area": 765.0,
        "core_free_area": 765.0,
        "outdoor_area": 2000.0,
        "outdoor_free_area": 2000.0,
        "seats": 3000,
        "core_courts": 4,
        "outdoor_courts": 5,
        "has_outdoor_fitness": false,
        "daily_visitors": 0
      },
      "subsidy_status": "2025年享受补助",
      "image_url": "https://js365.org.cn/oss/js365/upload/2021/07/20/64c3504f-b182-419e-bd1c-a776c2ba0bf6.jpg",
      "facilities": "",
      "projects": "",
      "remarks": ""
    },
    {
      "id": 123,
      "name": "献县体育场",
      "location": {
        "province": "河北省",
        "city": "沧州市",
        "district": "-沧州市",
        "full_address": "河北省-沧州市"
      },
      "sports_types": [],
      "description": "地址：河北省沧州市献县106国道东侧街道京开大道街7号",
      "facility_type": "体育场",
      "operator": "献县教育体育局",
      "build_year": 2014,
      "indicators": {
        "building_area": 30423.7,
        "site_area": 30138.7,
        "land_area": 63936.0,
        "core_area": 18569.8,
        "core_free_area": 18569.8,
        "outdoor_area": 6800.0,
        "outdoor_free_area": 6800.0,
        "seats": 1000,
        "core_courts": 3,
        "outdoor_courts": 3,
        "has_outdoor_fitness": false,
        "daily_visitors": 0
      },
      "subsidy_status": "2025年享受补助",
      "image_url": "https://js365.org.cn/oss/js365/upload/2021/05/14/03a2cc9b-38a4-4226-8897-d26c015507b7.jpg",
      "facilities": "",
      "projects": "",
      "remarks": ""
    },
    {
      "id": 124,
      "name": "承德县全民健身活动中心",
      "location": {
        "province": "河北省",
        "city": "承德市",
        "district": "-承德市",
        "full_address": "河北省-承德市"
      },
      "sports_types": [],
      "description": "地址：河北省承德市承德县杨村街道北环路2号",
      "facility_type": "健身中心",
      "operator": "承德县教育和体育局",
      "build_year": 2020,
      "indicators": {
        "building_area": 4984.0,
        "site_area": 5000.0,
        "land_area": 6000.0,
        "core_area": 4000.0,
        "core_free_area": 4000.0,
        "outdoor_area": 1000.0,
        "outdoor_free_area": 1000.0,
        "seats": 580,
        "core_courts": 4,
        "outdoor_courts": 1,
        "has_outdoor_fitness": false,
        "daily_visitors": 0
      },
      "subsidy_status": "2025年享受补助",
      "image_url": "https://js365.org.cn/oss/js365/js365/upload/20220623/b43db688a58748a8ab91f8a069769f80.jpg",
      "facilities": "",
      "projects": "",
      "remarks": ""
    },
    {
      "id": 125,
      "name": "塞北全民健身中心",
      "location": {
        "province": "河北省",
        "city": "张家口市",
        "district": "-张家口市",
        "full_address": "河北省-张家口市"
      },
      "sports_types": [],
      "description": "地址：河北省张家口市张家口市塞北管理区榆树沟管理处街道平安大街街1号",
      "facility_type": "健身中心",
      "operator": "塞北管理区文化广电和旅游局",
      "build_year": 2021,
      "indicators": {
        "building_area": 4408.0,
        "site_area": 3000.0,
        "land_area": 8133.0,
        "core_area": 1000.0,
        "core_free_area": 1000.0,
        "outdoor_area": 2000.0,
        "outdoor_free_area": 200.0,
        "seats": 0,
        "core_courts": 4,
        "outdoor_courts": 1,
        "has_outdoor_fitness": false,
        "daily_visitors": 0
      },
      "subsidy_status": "2025年享受补助",
      "image_url": "https://js365.org.cn/oss/js365/js365/upload/20220628/1f5ae3ebf83f48de8dd98e55cc1b347c.jpg",
      "facilities": "",
      "projects": "",
      "remarks": ""
    },
    {
      "id": 126,
      "name": "康保县体育馆",
      "location": {
        "province": "河北省",
        "city": "张家口市",
        "district": "-张家口市",
        "full_address": "河北省-张家口市"
      },
      "sports_types": [],
      "description": "地址：河北省张家口市康保县永安大街街道康食路18号",
      "facility_type": "体育馆",
      "operator": "康保县恒跃科技服务有限公司第一分公司",
      "build_year": 2016,
      "indicators": {
        "building_area": 3348.8,
        "site_area": 3170.0,
        "land_area": 14000.0,
        "core_area": 2750.0,
        "core_free_area": 2750.0,
        "outdoor_area": 420.0,
        "outdoor_free_area": 420.0,
        "seats": 88,
        "core_courts": 2,
        "outdoor_courts": 1,
        "has_outdoor_fitness": false,
        "daily_visitors": 0
      },
      "subsidy_status": "2025年享受补助",
      "image_url": "https://js365.org.cn/oss/js365/upload/2021/07/23/06e711a1-584d-4831-bacc-7724941c314f.jpg",
      "facilities": "",
      "projects": "",
      "remarks": ""
    },
    {
      "id": 127,
      "name": "容城县体育馆",
      "location": {
        "province": "河北省",
        "city": "",
        "district": "-雄安新区",
        "full_address": "河北省-雄安新区"
      },
      "sports_types": [],
      "description": "地址：河北省雄安新区容城县容城镇乡镇白洋淀大道街90号",
      "facility_type": "体育馆",
      "operator": "河北雄安万馆体育文化发展有限公司",
      "build_year": 2015,
      "indicators": {
        "building_area": 11800.0,
        "site_area": 10200.0,
        "land_area": 25200.0,
        "core_area": 5200.0,
        "core_free_area": 3500.0,
        "outdoor_area": 5000.0,
        "outdoor_free_area": 5000.0,
        "seats": 896,
        "core_courts": 3,
        "outdoor_courts": 1,
        "has_outdoor_fitness": false,
        "daily_visitors": 0
      },
      "subsidy_status": "2025年享受补助",
      "image_url": "https://js365.org.cn/oss/js365/upload/2021/04/30/2a78c102-ee27-489d-93f2-77aa847f3615.jpg",
      "facilities": "",
      "projects": "",
      "remarks": ""
    },
    {
      "id": 128,
      "name": "保定市游泳馆",
      "location": {
        "province": "河北省",
        "city": "保定市",
        "district": "-保定市",
        "full_address": "河北省-保定市"
      },
      "sports_types": [],
      "description": "地址：河北省保定市莲池区永华街道公园街81号",
      "facility_type": "公共游泳(跳水)",
      "operator": "保定市游泳馆",
      "build_year": 1988,
      "indicators": {
        "building_area": 6908.0,
        "site_area": 13159.0,
        "land_area": 15159.0,
        "core_area": 4306.0,
        "core_free_area": 4306.0,
        "outdoor_area": 0.0,
        "outdoor_free_area": 0.0,
        "seats": 0,
        "core_courts": 1,
        "outdoor_courts": 0,
        "has_outdoor_fitness": false,
        "daily_visitors": 0
      },
      "subsidy_status": "2025年享受补助",
      "image_url": "https://js365.org.cn/oss/js365/upload/2021/10/05/8cd81a9d-553d-44e0-824b-93835e8cb528.jpg",
      "facilities": "",
      "projects": "",
      "remarks": ""
    },
    {
      "id": 129,
      "name": "柏乡县室内滑冰馆",
      "location": {
        "province": "河北省",
        "city": "邢台市",
        "district": "-邢台市",
        "full_address": "河北省-邢台市"
      },
      "sports_types": [],
      "description": "地址：河北省邢台市柏乡县柏乡乡镇建设路260号",
      "facility_type": "体育馆",
      "operator": "柏乡县教育文化广电体育和旅游局",
      "build_year": 2020,
      "indicators": {
        "building_area": 743.0,
        "site_area": 600.0,
        "land_area": 743.0,
        "core_area": 600.0,
        "core_free_area": 600.0,
        "outdoor_area": 0.0,
        "outdoor_free_area": 0.0,
        "seats": 180,
        "core_courts": 1,
        "outdoor_courts": 0,
        "has_outdoor_fitness": false,
        "daily_visitors": 0
      },
      "subsidy_status": "2025年享受补助",
      "image_url": "https://js365.org.cn/oss/js365/upload/2021/10/14/5c06e4aa-22be-407f-9e9c-8f6664702a7e.jpg",
      "facilities": "",
      "projects": "",
      "remarks": ""
    },
    {
      "id": 130,
      "name": "内丘县全民健身中心",
      "location": {
        "province": "河北省",
        "city": "邢台市",
        "district": "-邢台市",
        "full_address": "河北省-邢台市"
      },
      "sports_types": [],
      "description": "地址：河北省邢台市内丘县内丘镇乡镇康庄东路2号",
      "facility_type": "健身中心",
      "operator": "内丘县教育局",
      "build_year": 2019,
      "indicators": {
        "building_area": 4176.0,
        "site_area": 4100.0,
        "land_area": 6700.0,
        "core_area": 2300.0,
        "core_free_area": 2300.0,
        "outdoor_area": 1800.0,
        "outdoor_free_area": 1800.0,
        "seats": 0,
        "core_courts": 10,
        "outdoor_courts": 3,
        "has_outdoor_fitness": false,
        "daily_visitors": 0
      },
      "subsidy_status": "2025年享受补助",
      "image_url": "https://js365.org.cn/oss/js365/upload/2021/07/23/5b4c3571-9213-4e0d-9d3c-dad73068bb7d.jpg",
      "facilities": "",
      "projects": "",
      "remarks": ""
    },
    {
      "id": 131,
      "name": "邢台市体育局气膜滑冰馆",
      "location": {
        "province": "河北省",
        "city": "邢台市",
        "district": "-邢台市",
        "full_address": "河北省-邢台市"
      },
      "sports_types": [],
      "description": "地址：河北省邢台市襄都区y052乡镇园博园西门街2号",
      "facility_type": "体育馆",
      "operator": "邢台奥城冰雪体育文化传播有限公司",
      "build_year": 2020,
      "indicators": {
        "building_area": 3780.0,
        "site_area": 10530.0,
        "land_area": 12040.0,
        "core_area": 1830.0,
        "core_free_area": 1830.0,
        "outdoor_area": 8700.0,
        "outdoor_free_area": 8700.0,
        "seats": 400,
        "core_courts": 1,
        "outdoor_courts": 1,
        "has_outdoor_fitness": false,
        "daily_visitors": 0
      },
      "subsidy_status": "2025年享受补助",
      "image_url": "https://js365.org.cn/oss/js365/upload/2021/10/11/f782fc32-bb6d-40da-a414-5f5583cc091a.jpg",
      "facilities": "",
      "projects": "",
      "remarks": ""
    },
    {
      "id": 132,
      "name": "唐山九江体育中心体育馆",
      "location": {
        "province": "河北省",
        "city": "唐山市",
        "district": "-唐山市",
        "full_address": "河北省-唐山市"
      },
      "sports_types": [],
      "description": "地址：河北省唐山市迁安市永顺街道惠兴大街街999号",
      "facility_type": "体育馆",
      "operator": "唐山九江体育中心",
      "build_year": 2012,
      "indicators": {
        "building_area": 26970.0,
        "site_area": 19778.0,
        "land_area": 45000.0,
        "core_area": 1748.0,
        "core_free_area": 1748.0,
        "outdoor_area": 18030.0,
        "outdoor_free_area": 4427.0,
        "seats": 5000,
        "core_courts": 10,
        "outdoor_courts": 6,
        "has_outdoor_fitness": false,
        "daily_visitors": 0
      },
      "subsidy_status": "2025年享受补助",
      "image_url": "https://js365.org.cn/oss/js365/upload/2021/07/21/11974e11-dbd1-4152-89ba-c5f42a9cdb40.jpg",
      "facilities": "",
      "projects": "",
      "remarks": ""
    },
    {
      "id": 133,
      "name": "新乐市体育馆",
      "location": {
        "province": "河北省",
        "city": "石家庄市",
        "district": "-石家庄市",
        "full_address": "河北省-石家庄市"
      },
      "sports_types": [],
      "description": "地址：河北省石家庄市新乐市长寿街道育才街街8号",
      "facility_type": "体育馆",
      "operator": "新乐市业余体校",
      "build_year": 1990,
      "indicators": {
        "building_area": 3777.14,
        "site_area": 3777.14,
        "land_area": 6666.67,
        "core_area": 1200.0,
        "core_free_area": 1000.0,
        "outdoor_area": 200.0,
        "outdoor_free_area": 200.0,
        "seats": 500,
        "core_courts": 8,
        "outdoor_courts": 8,
        "has_outdoor_fitness": false,
        "daily_visitors": 0
      },
      "subsidy_status": "2025年享受补助",
      "image_url": "https://www.js365.org.cn/oss/js365/upload/20240723/ec4d3d79f31b44438170cf922be31781.jpg",
      "facilities": "",
      "projects": "",
      "remarks": ""
    },
    {
      "id": 134,
      "name": "赵县城市综合馆全民健身中心",
      "location": {
        "province": "河北省",
        "city": "石家庄市",
        "district": "-石家庄市",
        "full_address": "河北省-石家庄市"
      },
      "sports_types": [],
      "description": "地址：河北省石家庄市赵县李春大道街道龙腾街街东北角号",
      "facility_type": "健身中心",
      "operator": "河北奥创体育文化传播有限公司赵县分公司",
      "build_year": 2022,
      "indicators": {
        "building_area": 3368.75,
        "site_area": 6700.0,
        "land_area": 64153.58,
        "core_area": 2700.0,
        "core_free_area": 2700.0,
        "outdoor_area": 4000.0,
        "outdoor_free_area": 4000.0,
        "seats": 0,
        "core_courts": 1,
        "outdoor_courts": 1,
        "has_outdoor_fitness": false,
        "daily_visitors": 0
      },
      "subsidy_status": "2025年享受补助",
      "image_url": "https://js365.org.cn/oss/js365/js365/upload/20220620/0fdf58d41eba46649b18980fe69110f4.jpg",
      "facilities": "",
      "projects": "",
      "remarks": ""
    },
    {
      "id": 135,
      "name": "任泽区公共滑冰馆",
      "location": {
        "province": "河北省",
        "city": "邢台市",
        "district": "-邢台市",
        "full_address": "河北省-邢台市"
      },
      "sports_types": [],
      "description": "地址：河北省邢台市任县邢台市街道育才街1号",
      "facility_type": "",
      "operator": "任泽区文化广电体育和旅游局",
      "build_year": 2020,
      "indicators": {
        "building_area": 415.0,
        "site_area": 300.0,
        "land_area": 415.0,
        "core_area": 300.0,
        "core_free_area": 300.0,
        "outdoor_area": 0.0,
        "outdoor_free_area": 0.0,
        "seats": 0,
        "core_courts": 1,
        "outdoor_courts": 0,
        "has_outdoor_fitness": false,
        "daily_visitors": 0
      },
      "subsidy_status": "2025年享受补助",
      "image_url": "https://js365.org.cn/oss/js365/js365/upload/20220728/571b0d79517e49209e3effc22a558581.jpg",
      "facilities": "",
      "projects": "",
      "remarks": ""
    },
    {
      "id": 136,
      "name": "石家庄市鹿泉区滑冰馆",
      "location": {
        "province": "河北省",
        "city": "石家庄市",
        "district": "-石家庄市",
        "full_address": "河北省-石家庄市"
      },
      "sports_types": [],
      "description": "地址：河北省石家庄市鹿泉区获鹿镇乡乡镇安康街街1号",
      "facility_type": "体育馆",
      "operator": "石家庄市鹿泉区冰雪运动协会",
      "build_year": 2021,
      "indicators": {
        "building_area": 800.0,
        "site_area": 800.0,
        "land_area": 950.0,
        "core_area": 576.0,
        "core_free_area": 576.0,
        "outdoor_area": 224.0,
        "outdoor_free_area": 224.0,
        "seats": 30,
        "core_courts": 1,
        "outdoor_courts": 1,
        "has_outdoor_fitness": false,
        "daily_visitors": 0
      },
      "subsidy_status": "2025年享受补助",
      "image_url": "https://js365.org.cn/oss/js365/js365/upload/20220727/9dabc5eea0124bb5a87e8312b221461b.jpg",
      "facilities": "",
      "projects": "",
      "remarks": ""
    },
    {
      "id": 137,
      "name": "鹿泉区游泳馆",
      "location": {
        "province": "河北省",
        "city": "石家庄市",
        "district": "-石家庄市",
        "full_address": "河北省-石家庄市"
      },
      "sports_types": [],
      "description": "地址：河北省石家庄市鹿泉区获鹿镇街道八街街213号",
      "facility_type": "公共游泳(跳水)",
      "operator": "鹿泉区体育场",
      "build_year": 2006,
      "indicators": {
        "building_area": 2000.0,
        "site_area": 1800.0,
        "land_area": 29683.22,
        "core_area": 1250.0,
        "core_free_area": 1250.0,
        "outdoor_area": 550.0,
        "outdoor_free_area": 550.0,
        "seats": 0,
        "core_courts": 1,
        "outdoor_courts": 0,
        "has_outdoor_fitness": false,
        "daily_visitors": 0
      },
      "subsidy_status": "2025年享受补助",
      "image_url": "https://www.js365.org.cn/oss/js365/upload/20230619/518acfbee7b740369e1a62a328e977b8.jpg",
      "facilities": "",
      "projects": "",
      "remarks": ""
    },
    {
      "id": 138,
      "name": "行唐县游泳馆",
      "location": {
        "province": "河北省",
        "city": "石家庄市",
        "district": "-石家庄市",
        "full_address": "河北省-石家庄市"
      },
      "sports_types": [],
      "description": "地址：河北省石家庄市行唐县只里乡乡镇颍水大街街2号",
      "facility_type": "公共游泳(跳水)",
      "operator": "石家庄欢拓文化发展有限公司",
      "build_year": 2022,
      "indicators": {
        "building_area": 3478.65,
        "site_area": 7375.38,
        "land_area": 7375.38,
        "core_area": 3478.65,
        "core_free_area": 3478.65,
        "outdoor_area": 3896.73,
        "outdoor_free_area": 3478.65,
        "seats": 0,
        "core_courts": 1,
        "outdoor_courts": 1,
        "has_outdoor_fitness": false,
        "daily_visitors": 0
      },
      "subsidy_status": "2025年享受补助",
      "image_url": "https://www.js365.org.cn/oss/js365/upload/20230614/bfedf7d34eaf42708f5c7fc71faee126.jpg",
      "facilities": "",
      "projects": "",
      "remarks": ""
    },
    {
      "id": 139,
      "name": "邯郸市体育场",
      "location": {
        "province": "河北省",
        "city": "邯郸市",
        "district": "-邯郸市",
        "full_address": "河北省-邯郸市"
      },
      "sports_types": [],
      "description": "地址：河北省邯郸市邯山区陵东街道陵园路路86号",
      "facility_type": "体育场",
      "operator": "邯郸市体育中心",
      "build_year": 2004,
      "indicators": {
        "building_area": 4171.0,
        "site_area": 22038.0,
        "land_area": 21716.0,
        "core_area": 17155.0,
        "core_free_area": 17155.0,
        "outdoor_area": 4883.0,
        "outdoor_free_area": 4248.0,
        "seats": 7800,
        "core_courts": 2,
        "outdoor_courts": 1,
        "has_outdoor_fitness": false,
        "daily_visitors": 0
      },
      "subsidy_status": "2025年享受补助",
      "image_url": "https://www.js365.org.cn/oss/js365/upload/20230724/a404ea49f43343c5b4abc133a16ccfc1.jpg",
      "facilities": "",
      "projects": "",
      "remarks": ""
    },
    {
      "id": 140,
      "name": "馆陶滑冰馆",
      "location": {
        "province": "河北省",
        "city": "邯郸市",
        "district": "-邯郸市",
        "full_address": "河北省-邯郸市"
      },
      "sports_types": [],
      "description": "地址：河北省邯郸市馆陶县寿山寺镇街道寿东村街A号",
      "facility_type": "体育馆",
      "operator": "馆陶县教育体育局",
      "build_year": 2020,
      "indicators": {
        "building_area": 5360.0,
        "site_area": 12242.0,
        "land_area": 14652.0,
        "core_area": 2950.0,
        "core_free_area": 2950.0,
        "outdoor_area": 9292.0,
        "outdoor_free_area": 4992.0,
        "seats": 400,
        "core_courts": 5,
        "outdoor_courts": 2,
        "has_outdoor_fitness": false,
        "daily_visitors": 0
      },
      "subsidy_status": "2025年享受补助",
      "image_url": "https://js365.org.cn/oss/js365/js365/upload/20220728/0418742e76724669817051e2573bcf01.jpg",
      "facilities": "",
      "projects": "",
      "remarks": ""
    },
    {
      "id": 141,
      "name": "廊坊市体育场",
      "location": {
        "province": "河北省",
        "city": "廊坊市",
        "district": "-廊坊市",
        "full_address": "河北省-廊坊市"
      },
      "sports_types": [],
      "description": "地址：河北省廊坊市廊坊经济技术开发区和平路街道和平路街189号",
      "facility_type": "体育场",
      "operator": "廊坊市体育局",
      "build_year": 2010,
      "indicators": {
        "building_area": 29937.42,
        "site_area": 112462.83,
        "land_area": 130627.0,
        "core_area": 22595.0,
        "core_free_area": 22595.0,
        "outdoor_area": 89867.83,
        "outdoor_free_area": 89867.83,
        "seats": 32000,
        "core_courts": 2,
        "outdoor_courts": 11,
        "has_outdoor_fitness": false,
        "daily_visitors": 0
      },
      "subsidy_status": "2025年享受补助",
      "image_url": "https://js365.org.cn/oss/js365/upload/2021/07/23/3f50b6e0-6a10-4612-9c58-7a9f2f942527.jpeg",
      "facilities": "",
      "projects": "",
      "remarks": ""
    },
    {
      "id": 142,
      "name": "石家庄市桥西区冰雪健身中心",
      "location": {
        "province": "河北省",
        "city": "石家庄市",
        "district": "-石家庄市",
        "full_address": "河北省-石家庄市"
      },
      "sports_types": [],
      "description": "地址：河北省石家庄市桥西区东风街道东风西路105号",
      "facility_type": "体育馆",
      "operator": "河北奥创体育文化传播有限公司",
      "build_year": 2021,
      "indicators": {
        "building_area": 3012.81,
        "site_area": 2166.08,
        "land_area": 2881.08,
        "core_area": 1137.18,
        "core_free_area": 1137.18,
        "outdoor_area": 0.0,
        "outdoor_free_area": 0.0,
        "seats": 16,
        "core_courts": 1,
        "outdoor_courts": 0,
        "has_outdoor_fitness": false,
        "daily_visitors": 0
      },
      "subsidy_status": "2025年享受补助",
      "image_url": "https://js365.org.cn/oss/js365/js365/upload/20220629/b26c9c32e98f4ce19adffb12a71df35e.jpg",
      "facilities": "",
      "projects": "",
      "remarks": ""
    },
    {
      "id": 143,
      "name": "唐山市体育中心网球场",
      "location": {
        "province": "河北省",
        "city": "唐山市",
        "district": "-唐山市",
        "full_address": "河北省-唐山市"
      },
      "sports_types": [],
      "description": "地址：河北省唐山市路北区文化街道建设南路街92号",
      "facility_type": "",
      "operator": "唐山市体育中心",
      "build_year": 1995,
      "indicators": {
        "building_area": 3000.0,
        "site_area": 2800.0,
        "land_area": 4500.0,
        "core_area": 2800.0,
        "core_free_area": 2800.0,
        "outdoor_area": 0.0,
        "outdoor_free_area": 0.0,
        "seats": 200,
        "core_courts": 0,
        "outdoor_courts": 0,
        "has_outdoor_fitness": false,
        "daily_visitors": 0
      },
      "subsidy_status": "2025年享受补助",
      "image_url": "https://www.js365.org.cn/oss/js365/upload/20240722/c8c019df6acb438d871ca09d74c121e0.jpg",
      "facilities": "",
      "projects": "",
      "remarks": ""
    },
    {
      "id": 144,
      "name": "南和区滑冰馆",
      "location": {
        "province": "河北省",
        "city": "邢台市",
        "district": "-邢台市",
        "full_address": "河北省-邢台市"
      },
      "sports_types": [],
      "description": "地址：河北省邢台市南和区中兴东大街街道贾宋村南和区滑冰馆门牌",
      "facility_type": "",
      "operator": "邢台奥城冰雪体育文化传播有限公司",
      "build_year": 2022,
      "indicators": {
        "building_area": 3185.0,
        "site_area": 1500.0,
        "land_area": 3185.0,
        "core_area": 1500.0,
        "core_free_area": 1500.0,
        "outdoor_area": 0.0,
        "outdoor_free_area": 0.0,
        "seats": 520,
        "core_courts": 0,
        "outdoor_courts": 0,
        "has_outdoor_fitness": false,
        "daily_visitors": 0
      },
      "subsidy_status": "2025年享受补助",
      "image_url": "https://www.js365.org.cn/oss/js365/upload/20240730/da1514f1cf584ccca7b00afe7423080b.png",
      "facilities": "",
      "projects": "",
      "remarks": ""
    },
    {
      "id": 145,
      "name": "保定市蠡县全民健身中心",
      "location": {
        "province": "河北省",
        "city": "保定市",
        "district": "-保定市",
        "full_address": "河北省-保定市"
      },
      "sports_types": [],
      "description": "地址：河北省保定市蠡县永盛街道南大街822号",
      "facility_type": "健身中心",
      "operator": "蠡县教育和体育局",
      "build_year": 2002,
      "indicators": {
        "building_area": 9000.0,
        "site_area": 7000.0,
        "land_area": 10000.0,
        "core_area": 5000.0,
        "core_free_area": 5000.0,
        "outdoor_area": 1500.0,
        "outdoor_free_area": 1500.0,
        "seats": 0,
        "core_courts": 3,
        "outdoor_courts": 2,
        "has_outdoor_fitness": false,
        "daily_visitors": 0
      },
      "subsidy_status": "2025年享受补助",
      "image_url": "https://js365.org.cn/oss/js365/upload/2021/07/23/3610fecf-fd7c-4e42-95c1-56614b0959ec.jpg",
      "facilities": "",
      "projects": "",
      "remarks": ""
    },
    {
      "id": 146,
      "name": "晋州全民健身中心",
      "location": {
        "province": "河北省",
        "city": "石家庄市",
        "district": "-石家庄市",
        "full_address": "河北省-石家庄市"
      },
      "sports_types": [],
      "description": "地址：河北省石家庄市晋州市晋州街道中兴路街749号",
      "facility_type": "健身中心",
      "operator": "石家庄晋拓体育发展有限公司",
      "build_year": 2024,
      "indicators": {
        "building_area": 6340.0,
        "site_area": 5500.0,
        "land_area": 14155.36,
        "core_area": 3720.0,
        "core_free_area": 3720.0,
        "outdoor_area": 0.0,
        "outdoor_free_area": 0.0,
        "seats": 0,
        "core_courts": 0,
        "outdoor_courts": 0,
        "has_outdoor_fitness": false,
        "daily_visitors": 229
      },
      "subsidy_status": "",
      "image_url": "https://www.js365.org.cn/oss/js365/upload/20240724/e3c060f76d554f7fbf10398fabb32640.png",
      "facilities": "",
      "projects": "",
      "remarks": ""
    },
    {
      "id": 147,
      "name": "新乐市全民健身中心",
      "location": {
        "province": "河北省",
        "city": "石家庄市",
        "district": "-石家庄市",
        "full_address": "河北省-石家庄市"
      },
      "sports_types": [],
      "description": "地址：河北省石家庄市新乐市长寿街道礼堂街街36号",
      "facility_type": "健身中心",
      "operator": "新乐市文化广电体育和旅游局",
      "build_year": 2024,
      "indicators": {
        "building_area": 2751.0,
        "site_area": 2500.0,
        "land_area": 7107.0,
        "core_area": 2500.0,
        "core_free_area": 2500.0,
        "outdoor_area": 0.0,
        "outdoor_free_area": 0.0,
        "seats": 0,
        "core_courts": 0,
        "outdoor_courts": 0,
        "has_outdoor_fitness": false,
        "daily_visitors": 183
      },
      "subsidy_status": "",
      "image_url": "https://www.js365.org.cn/oss/js365/upload/20240922/f7a2803f4db64681931e4e1532c71dfa.jpg",
      "facilities": "",
      "projects": "",
      "remarks": ""
    },
    {
      "id": 148,
      "name": "清苑区室内滑冰馆",
      "location": {
        "province": "河北省",
        "city": "保定市",
        "district": "-保定市",
        "full_address": "河北省-保定市"
      },
      "sports_types": [],
      "description": "地址：河北省保定市清苑区北店乡镇西林水村325号",
      "facility_type": "体育馆",
      "operator": "清苑区教育和体育局",
      "build_year": 2020,
      "indicators": {
        "building_area": 1000.0,
        "site_area": 1000.0,
        "land_area": 1000.0,
        "core_area": 350.0,
        "core_free_area": 350.0,
        "outdoor_area": 650.0,
        "outdoor_free_area": 0.0,
        "seats": 150,
        "core_courts": 1,
        "outdoor_courts": 0,
        "has_outdoor_fitness": false,
        "daily_visitors": 0
      },
      "subsidy_status": "",
      "image_url": "https://js365.org.cn/oss/js365/js365/upload/20220728/13d9bce26015424a9f2753551b0d098b.jpg",
      "facilities": "",
      "projects": "",
      "remarks": ""
    },
    {
      "id": 149,
      "name": "中央绿色体育公园网球馆",
      "location": {
        "province": "河北省",
        "city": "石家庄市",
        "district": "-石家庄市",
        "full_address": "河北省-石家庄市"
      },
      "sports_types": [],
      "description": "地址：河北省石家庄市桥西区汇通街道汇华路路10号",
      "facility_type": "",
      "operator": "石家庄勇石体育发展有限责任公司",
      "build_year": 2022,
      "indicators": {
        "building_area": 5346.0,
        "site_area": 1500.0,
        "land_area": 3256.0,
        "core_area": 1338.0,
        "core_free_area": 1338.0,
        "outdoor_area": 0.0,
        "outdoor_free_area": 0.0,
        "seats": 438,
        "core_courts": 0,
        "outdoor_courts": 0,
        "has_outdoor_fitness": false,
        "daily_visitors": 0
      },
      "subsidy_status": "",
      "image_url": "https://www.js365.org.cn/oss/js365/upload/20240729/ab838b34c3b84a418be44fbf079d1e8b.jpg",
      "facilities": "",
      "projects": "",
      "remarks": ""
    },
    {
      "id": 150,
      "name": "中央绿色体育公园乒乓球馆",
      "location": {
        "province": "河北省",
        "city": "石家庄市",
        "district": "-石家庄市",
        "full_address": "河北省-石家庄市"
      },
      "sports_types": [],
      "description": "地址：河北省石家庄市桥西区汇通路街道汇华路街10号",
      "facility_type": "体育馆",
      "operator": "石家庄勇石体育发展有限责任公司",
      "build_year": 2022,
      "indicators": {
        "building_area": 1391.0,
        "site_area": 1350.0,
        "land_area": 567.0,
        "core_area": 1350.0,
        "core_free_area": 1350.0,
        "outdoor_area": 0.0,
        "outdoor_free_area": 0.0,
        "seats": 56,
        "core_courts": 0,
        "outdoor_courts": 0,
        "has_outdoor_fitness": false,
        "daily_visitors": 0
      },
      "subsidy_status": "",
      "image_url": "https://www.js365.org.cn/oss/js365/upload/20240729/3c3daf6ac97146d3b5b56bde948e4f93.jpg",
      "facilities": "",
      "projects": "",
      "remarks": ""
    },
    {
      "id": 151,
      "name": "中央绿色体育公园多功能馆",
      "location": {
        "province": "河北省",
        "city": "石家庄市",
        "district": "-石家庄市",
        "full_address": "河北省-石家庄市"
      },
      "sports_types": [],
      "description": "地址：河北省石家庄市桥西区汇通路与街道塔南路交叉口路16号",
      "facility_type": "体育馆",
      "operator": "石家庄勇石体育发展有限责任公司",
      "build_year": 2022,
      "indicators": {
        "building_area": 2715.0,
        "site_area": 1000.0,
        "land_area": 1678.0,
        "core_area": 1000.0,
        "core_free_area": 1000.0,
        "outdoor_area": 0.0,
        "outdoor_free_area": 0.0,
        "seats": 0,
        "core_courts": 0,
        "outdoor_courts": 0,
        "has_outdoor_fitness": false,
        "daily_visitors": 0
      },
      "subsidy_status": "",
      "image_url": "https://www.js365.org.cn/oss/js365/upload/20240729/0d3d2366ecb24be7bf0532829e00a128.jpg",
      "facilities": "",
      "projects": "",
      "remarks": ""
    },
    {
      "id": 152,
      "name": "海港区全民健身中心",
      "location": {
        "province": "河北省",
        "city": "秦皇岛市",
        "district": "-秦皇岛市",
        "full_address": "河北省-秦皇岛市"
      },
      "sports_types": [],
      "description": "地址：河北省秦皇岛市海港区建设大街街道建设大街街37号",
      "facility_type": "健身中心",
      "operator": "海港区体育指导中心",
      "build_year": 2015,
      "indicators": {
        "building_area": 1200.0,
        "site_area": 845.0,
        "land_area": 2000.0,
        "core_area": 845.0,
        "core_free_area": 854.0,
        "outdoor_area": 0.0,
        "outdoor_free_area": 0.0,
        "seats": 0,
        "core_courts": 0,
        "outdoor_courts": 0,
        "has_outdoor_fitness": false,
        "daily_visitors": 0
      },
      "subsidy_status": "",
      "image_url": "https://www.js365.org.cn/oss/js365/upload/20240730/a934d720606f49fbbf68c2039020bd66.jpg",
      "facilities": "",
      "projects": "",
      "remarks": ""
    },
    {
      "id": 153,
      "name": "",
      "location": {},
      "sports_types": [],
      "description": "",
      "facility_type": "",
      "operator": "",
      "build_year": 0,
      "indicators": {
        "building_area": 0.0,
        "site_area": 0.0,
        "land_area": 0.0,
        "core_area": 0.0,
        "core_free_area": 0.0,
        "outdoor_area": 0.0,
        "outdoor_free_area": 0.0,
        "seats": 0,
        "core_courts": 0,
        "outdoor_courts": 0,
        "has_outdoor_fitness": false,
        "daily_visitors": 0
      },
      "subsidy_status": "",
      "image_url": "",
      "facilities": "",
      "projects": "",
      "remarks": ""
    },
    {
      "id": 154,
      "name": "唐山市体育中心健身公园",
      "location": {},
      "sports_types": [
        "足球",
        "篮球",
        "乒乓球",
        "网球",
        "游泳",
        "跑步",
        "太极拳",
        "广场舞"
      ],
      "description": "",
      "facility_type": "",
      "operator": "",
      "build_year": 0,
      "indicators": {
        "building_area": 0.0,
        "site_area": 0.0,
        "land_area": 0.0,
        "core_area": 0.0,
        "core_free_area": 0.0,
        "outdoor_area": 0.0,
        "outdoor_free_area": 0.0,
        "seats": 0,
        "core_courts": 0,
        "outdoor_courts": 0,
        "has_outdoor_fitness": false,
        "daily_visitors": 0
      },
      "subsidy_status": "",
      "image_url": "",
      "facilities": "公园区：健身步道场地、田径场地、力量训练场地、空竹场地、广场舞场地、篮球场地、足球场地、乒乓球场地（全天）；场馆区：游泳馆（6:00-8:00，12:30-18:00）、跳水馆（9: 00-18: 00）、网球馆（7:00-11:00，14: 00-17: 00）",
      "projects": "公园区：快步走、跑步、乒乓球、篮球、足球、力量训练、广场舞、太极拳、空竹、棋牌、轮滑等；场馆区：网球、游泳、散打、跳水等",
      "remarks": "公益性健身场地，场馆区大部分器械以免费开放为主，收费场馆以低收费的方式呈现给市民，公园区器械及场所完全免费开放；项目设置覆盖各个年龄段（儿童区、青年区、老年区）；场地不充足、场地设施不合理、损坏维修不及时；经营项目：运动训练与培训、场地场馆出租、运动产品销售"
    },
    {
      "id": 155,
      "name": "",
      "location": {},
      "sports_types": [],
      "description": "",
      "facility_type": "",
      "operator": "",
      "build_year": 0,
      "indicators": {
        "building_area": 0.0,
        "site_area": 0.0,
        "land_area": 0.0,
        "core_area": 0.0,
        "core_free_area": 0.0,
        "outdoor_area": 0.0,
        "outdoor_free_area": 0.0,
        "seats": 0,
        "core_courts": 0,
        "outdoor_courts": 0,
        "has_outdoor_fitness": false,
        "daily_visitors": 0
      },
      "subsidy_status": "",
      "image_url": "",
      "facilities": "",
      "projects": "",
      "remarks": ""
    },
    {
      "id": 156,
      "name": "",
      "location": {},
      "sports_types": [],
      "description": "",
      "facility_type": "",
      "operator": "",
      "build_year": 0,
      "indicators": {
        "building_area": 0.0,
        "site_area": 0.0,
        "land_area": 0.0,
        "core_area": 0.0,
        "core_free_area": 0.0,
        "outdoor_area": 0.0,
        "outdoor_free_area": 0.0,
        "seats": 0,
        "core_courts": 0,
        "outdoor_courts": 0,
        "has_outdoor_fitness": false,
        "daily_visitors": 0
      },
      "subsidy_status": "",
      "image_url": "",
      "facilities": "",
      "projects": "",
      "remarks": ""
    },
    {
      "id": 157,
      "name": "",
      "location": {},
      "sports_types": [],
      "description": "",
      "facility_type": "",
      "operator": "",
      "build_year": 0,
      "indicators": {
        "building_area": 0.0,
        "site_area": 0.0,
        "land_area": 0.0,
        "core_area": 0.0,
        "core_free_area": 0.0,
        "outdoor_area": 0.0,
        "outdoor_free_area": 0.0,
        "seats": 0,
        "core_courts": 0,
        "outdoor_courts": 0,
        "has_outdoor_fitness": false,
        "daily_visitors": 0
      },
      "subsidy_status": "",
      "image_url": "",
      "facilities": "",
      "projects": "",
      "remarks": ""
    },
    {
      "id": 158,
      "name": "",
      "location": {},
      "sports_types": [],
      "description": "",
      "facility_type": "",
      "operator": "",
      "build_year": 0,
      "indicators": {
        "building_area": 0.0,
        "site_area": 0.0,
        "land_area": 0.0,
        "core_area": 0.0,
        "core_free_area": 0.0,
        "outdoor_area": 0.0,
        "outdoor_free_area": 0.0,
        "seats": 0,
        "core_courts": 0,
        "outdoor_courts": 0,
        "has_outdoor_fitness": false,
        "daily_visitors": 0
      },
      "subsidy_status": "",
      "image_url": "",
      "facilities": "",
      "projects": "",
      "remarks": ""
    }
  ]
}